{
	"type" : "FeatureCollection",
	"name" : "peaks",
	"features" : [
		{
			"type" : "Feature",
			"geometry" : {
				"type" : "Point",
				"coordinates" : [ 86.9253, 27.9881 ]
			},
			"properties" : {
				"meters" : 8850,
				"name" : "Mount Everest"
			}
		},
		{
			"type" : "Feature",
			"geometry" : {
				"type" : "Point",
				"coordinates" : [ 76.5133, 35.8825 ]
			},
			"properties" : {
				"meters" : 8612,
				"name" : "K2"
			}
		},
		{
			"type" : "Feature",
			"geometry" : {
				"type" : "Point",
				"coordinates" : [ 88.1483, 27.7025 ]
			},
			"properties" : {
				"meters" : 8586,
				"name" : "Kangchenjunga"
			}
		},
		{
			"type" : "Feature",
			"geometry" : {
				"type" : "Point",
				"coordinates" : [ 86.9333, 27.9667 ]
			},
			"properties" : {
				"meters" : 8516,
				"name" : "Lhotse"
			}
		},
		{
			"type" : "Feature",
			"geometry" : {
				"type" : "Point",
				"coordinates" : [ 88.136616, 27.705187 ]
			},
			"properties" : {
				"meters" : 8505,
				"name" : "Kangchenjunga West"
			}
		},
		{
			"type" : "Feature",
			"geometry" : {
				"type" : "Point",
				"coordinates" : [ 87.089396, 27.889915 ]
			},
			"properties" : {
				"meters" : 8462,
				"name" : "Makalu"
			}
		},
		{
			"type" : "Feature",
			"geometry" : {
				"type" : "Point",
				"coordinates" : [ 86.95, 27.9667 ]
			},
			"properties" : {
				"meters" : 8430,
				"name" : "Lhotse middle"
			}
		},
		{
			"type" : "Feature",
			"geometry" : {
				"type" : "Point",
				"coordinates" : [ 86.95, 27.9667 ]
			},
			"properties" : {
				"meters" : 8400,
				"name" : "Lhotse Shar"
			}
		},
		{
			"type" : "Feature",
			"geometry" : {
				"type" : "Point",
				"coordinates" : [ 86.6608, 28.094092 ]
			},
			"properties" : {
				"meters" : 8201,
				"name" : "Cho Oyu"
			}
		},
		{
			"type" : "Feature",
			"geometry" : {
				"type" : "Point",
				"coordinates" : [ 83.5, 28.7 ]
			},
			"properties" : {
				"meters" : 8167,
				"name" : "Dhaulagiri"
			}
		},
		{
			"type" : "Feature",
			"geometry" : {
				"type" : "Point",
				"coordinates" : [ 84.559536, 28.549959 ]
			},
			"properties" : {
				"meters" : 8156,
				"name" : "Manaslu"
			}
		},
		{
			"type" : "Feature",
			"geometry" : {
				"type" : "Point",
				"coordinates" : [ 74.591804, 35.248668 ]
			},
			"properties" : {
				"meters" : 8125,
				"name" : "Nanga Parbat"
			}
		},
		{
			"type" : "Feature",
			"geometry" : {
				"type" : "Point",
				"coordinates" : [ 83.989921, 28.584823 ]
			},
			"properties" : {
				"meters" : 8091,
				"name" : "Annapurna"
			}
		},
		{
			"type" : "Feature",
			"geometry" : {
				"type" : "Point",
				"coordinates" : [ 76.69826, 35.724845 ]
			},
			"properties" : {
				"meters" : 8068,
				"name" : "Gasherbrum"
			}
		},
		{
			"type" : "Feature",
			"geometry" : {
				"type" : "Point",
				"coordinates" : [ 76.5667, 35.8167 ]
			},
			"properties" : {
				"meters" : 8047,
				"name" : "Broad Peak"
			}
		},
		{
			"type" : "Feature",
			"geometry" : {
				"type" : "Point",
				"coordinates" : [ 76.653028, 35.757831 ]
			},
			"properties" : {
				"meters" : 8035,
				"name" : "Gasherbrum II"
			}
		},
		{
			"type" : "Feature",
			"geometry" : {
				"type" : "Point",
				"coordinates" : [ 85.7833, 28.35 ]
			},
			"properties" : {
				"meters" : 8013,
				"name" : "Shisha Pangma"
			}
		},
		{
			"type" : "Feature",
			"geometry" : {
				"type" : "Point",
				"coordinates" : [ 86.75, 28.1 ]
			},
			"properties" : {
				"meters" : 7952,
				"name" : "Gyachung Kang"
			}
		},
		{
			"type" : "Feature",
			"geometry" : {
				"type" : "Point",
				"coordinates" : [ 84.121799, 28.534766 ]
			},
			"properties" : {
				"meters" : 7937,
				"name" : "Annapurna 2"
			}
		},
		{
			"type" : "Feature",
			"geometry" : {
				"type" : "Point",
				"coordinates" : [ 76.615906, 35.762359 ]
			},
			"properties" : {
				"meters" : 7925,
				"name" : "Gasherbrum IV"
			}
		},
		{
			"type" : "Feature",
			"geometry" : {
				"type" : "Point",
				"coordinates" : [ 86.684103, 28.105903 ]
			},
			"properties" : {
				"meters" : 7916,
				"name" : "Ngoyumba Kang"
			}
		},
		{
			"type" : "Feature",
			"geometry" : {
				"type" : "Point",
				"coordinates" : [ 78.37, 35.44 ]
			},
			"properties" : {
				"meters" : 7912,
				"name" : "Bei Tip"
			}
		},
		{
			"type" : "Feature",
			"geometry" : {
				"type" : "Point",
				"coordinates" : [ 75.1833, 36.3333 ]
			},
			"properties" : {
				"meters" : 7885,
				"name" : "Distaghil Sar"
			}
		},
		{
			"type" : "Feature",
			"geometry" : {
				"type" : "Point",
				"coordinates" : [ 84.5675, 28.5033 ]
			},
			"properties" : {
				"meters" : 7871,
				"name" : "Ngadi Chuli"
			}
		},
		{
			"type" : "Feature",
			"geometry" : {
				"type" : "Point",
				"coordinates" : [ 86.883273, 27.968479 ]
			},
			"properties" : {
				"meters" : 7861,
				"name" : "Nuptse"
			}
		},
		{
			"type" : "Feature",
			"geometry" : {
				"type" : "Point",
				"coordinates" : [ 88.1105, 27.7166 ]
			},
			"properties" : {
				"meters" : 7858,
				"name" : "Kangbachen"
			}
		},
		{
			"type" : "Feature",
			"geometry" : {
				"type" : "Point",
				"coordinates" : [ 75.121036, 36.088159 ]
			},
			"properties" : {
				"meters" : 7852,
				"name" : "Khiangyang Kish"
			}
		},
		{
			"type" : "Feature",
			"geometry" : {
				"type" : "Point",
				"coordinates" : [ 76.306658, 35.642301 ]
			},
			"properties" : {
				"meters" : 7821,
				"name" : "Masherbrum"
			}
		},
		{
			"type" : "Feature",
			"geometry" : {
				"type" : "Point",
				"coordinates" : [ 87.108056, 27.93 ]
			},
			"properties" : {
				"meters" : 7818,
				"name" : "Chomo Lonzo"
			}
		},
		{
			"type" : "Feature",
			"geometry" : {
				"type" : "Point",
				"coordinates" : [ 79.9667, 30.3833 ]
			},
			"properties" : {
				"meters" : 7817,
				"name" : "Nanda Devi"
			}
		},
		{
			"type" : "Feature",
			"geometry" : {
				"type" : "Point",
				"coordinates" : [ 74.522581, 36.510326 ]
			},
			"properties" : {
				"meters" : 7795,
				"name" : "Batura"
			}
		},
		{
			"type" : "Feature",
			"geometry" : {
				"type" : "Point",
				"coordinates" : [ 74.489965, 36.142311 ]
			},
			"properties" : {
				"meters" : 7788,
				"name" : "Rakaposhi"
			}
		},
		{
			"type" : "Feature",
			"geometry" : {
				"type" : "Point",
				"coordinates" : [ 95.1667, 29.6667 ]
			},
			"properties" : {
				"meters" : 7782,
				"name" : "Namche Barwa"
			}
		},
		{
			"type" : "Feature",
			"geometry" : {
				"type" : "Point",
				"coordinates" : [ 74.31, 36.3 ]
			},
			"properties" : {
				"meters" : 7762,
				"name" : "Batura II"
			}
		},
		{
			"type" : "Feature",
			"geometry" : {
				"type" : "Point",
				"coordinates" : [ 79.593611, 30.920278 ]
			},
			"properties" : {
				"meters" : 7756,
				"name" : "Kamet"
			}
		},
		{
			"type" : "Feature",
			"geometry" : {
				"type" : "Point",
				"coordinates" : [ 76.8486, 35.4003 ]
			},
			"properties" : {
				"meters" : 7742,
				"name" : "Saltoro Kangri"
			}
		},
		{
			"type" : "Feature",
			"geometry" : {
				"type" : "Point",
				"coordinates" : [ 75.35, 38.6667 ]
			},
			"properties" : {
				"meters" : 7719,
				"name" : "Kongur"
			}
		},
		{
			"type" : "Feature",
			"geometry" : {
				"type" : "Point",
				"coordinates" : [ 88.0458, 27.6828 ]
			},
			"properties" : {
				"meters" : 7710,
				"name" : "Jannu"
			}
		},
		{
			"type" : "Feature",
			"geometry" : {
				"type" : "Point",
				"coordinates" : [ 71.8333, 36.25 ]
			},
			"properties" : {
				"meters" : 7706,
				"name" : "Tirich Mir"
			}
		},
		{
			"type" : "Feature",
			"geometry" : {
				"type" : "Point",
				"coordinates" : [ 81.2833, 30.4333 ]
			},
			"properties" : {
				"meters" : 7694,
				"name" : "Gurla Mandata"
			}
		},
		{
			"type" : "Feature",
			"geometry" : {
				"type" : "Point",
				"coordinates" : [ 81.2833, 30.2833 ]
			},
			"properties" : {
				"meters" : 7694,
				"name" : "Gurla Mandhata"
			}
		},
		{
			"type" : "Feature",
			"geometry" : {
				"type" : "Point",
				"coordinates" : [ 77.75, 34.8667 ]
			},
			"properties" : {
				"meters" : 7672,
				"name" : "Sasir Kangri"
			}
		},
		{
			"type" : "Feature",
			"geometry" : {
				"type" : "Point",
				"coordinates" : [ 76.574364, 35.613279 ]
			},
			"properties" : {
				"meters" : 7665,
				"name" : "Chogolisa"
			}
		},
		{
			"type" : "Feature",
			"geometry" : {
				"type" : "Point",
				"coordinates" : [ 85.809721, 28.354998 ]
			},
			"properties" : {
				"meters" : 7661,
				"name" : "Phola Gangchen (aka Molamenqing) (摩拉门青)"
			}
		},
		{
			"type" : "Feature",
			"geometry" : {
				"type" : "Point",
				"coordinates" : [ 81.0333, 27.8333 ]
			},
			"properties" : {
				"meters" : 7619,
				"name" : "Saipal"
			}
		},
		{
			"type" : "Feature",
			"geometry" : {
				"type" : "Point",
				"coordinates" : [ 74.653398, 36.423759 ]
			},
			"properties" : {
				"meters" : 7611,
				"name" : "Shisper Pak"
			}
		},
		{
			"type" : "Feature",
			"geometry" : {
				"type" : "Point",
				"coordinates" : [ 103.333, 29.1333 ]
			},
			"properties" : {
				"meters" : 7596,
				"name" : "Gongga Shan"
			}
		},
		{
			"type" : "Feature",
			"geometry" : {
				"type" : "Point",
				"coordinates" : [ 86.9142, 28.0253 ]
			},
			"properties" : {
				"meters" : 7580,
				"name" : "Changtse"
			}
		},
		{
			"type" : "Feature",
			"geometry" : {
				"type" : "Point",
				"coordinates" : [ 90.27, 28.03 ]
			},
			"properties" : {
				"meters" : 7570,
				"name" : "Gangkar Punsum"
			}
		},
		{
			"type" : "Feature",
			"geometry" : {
				"type" : "Point",
				"coordinates" : [ 101.883, 29.5667 ]
			},
			"properties" : {
				"meters" : 7556,
				"name" : "Minya Konka"
			}
		},
		{
			"type" : "Feature",
			"geometry" : {
				"type" : "Point",
				"coordinates" : [ 75.1167, 38.2833 ]
			},
			"properties" : {
				"meters" : 7546,
				"name" : "Muztagh Ata"
			}
		},
		{
			"type" : "Feature",
			"geometry" : {
				"type" : "Point",
				"coordinates" : [ 83.963475, 28.605339 ]
			},
			"properties" : {
				"meters" : 7545,
				"name" : "Gangapurna"
			}
		},
		{
			"type" : "Feature",
			"geometry" : {
				"type" : "Point",
				"coordinates" : [ 76.5675, 35.9264 ]
			},
			"properties" : {
				"meters" : 7545,
				"name" : "Skyang Kangri"
			}
		},
		{
			"type" : "Feature",
			"geometry" : {
				"type" : "Point",
				"coordinates" : [ 90.6, 28.2333 ]
			},
			"properties" : {
				"meters" : 7538,
				"name" : "Kula Kangri"
			}
		},
		{
			"type" : "Feature",
			"geometry" : {
				"type" : "Point",
				"coordinates" : [ 77.5775, 35.14083 ]
			},
			"properties" : {
				"meters" : 7516,
				"name" : "Mamostong Kangri - I"
			}
		},
		{
			"type" : "Feature",
			"geometry" : {
				"type" : "Point",
				"coordinates" : [ 72.0167, 38.95 ]
			},
			"properties" : {
				"meters" : 7495,
				"name" : "Pik Imeni Ismail Samani"
			}
		},
		{
			"type" : "Feature",
			"geometry" : {
				"type" : "Point",
				"coordinates" : [ 71.9, 36.4333 ]
			},
			"properties" : {
				"meters" : 7492,
				"name" : "Noshaq"
			}
		},
		{
			"type" : "Feature",
			"geometry" : {
				"type" : "Point",
				"coordinates" : [ 80.1833, 42.05 ]
			},
			"properties" : {
				"meters" : 7439,
				"name" : "Pik Pobeda"
			}
		},
		{
			"type" : "Feature",
			"geometry" : {
				"type" : "Point",
				"coordinates" : [ 85.126963, 28.391551 ]
			},
			"properties" : {
				"meters" : 7429,
				"name" : "Ganesh Himal"
			}
		},
		{
			"type" : "Feature",
			"geometry" : {
				"type" : "Point",
				"coordinates" : [ 76.761861, 35.663259 ]
			},
			"properties" : {
				"meters" : 7422,
				"name" : "Sia Kangri"
			}
		},
		{
			"type" : "Feature",
			"geometry" : {
				"type" : "Point",
				"coordinates" : [ 74.89749, 35.840221 ]
			},
			"properties" : {
				"meters" : 7409,
				"name" : "Haramosh Peak"
			}
		},
		{
			"type" : "Feature",
			"geometry" : {
				"type" : "Point",
				"coordinates" : [ 76.782074, 35.466542 ]
			},
			"properties" : {
				"meters" : 7380,
				"name" : "Sherpi Kangri"
			}
		},
		{
			"type" : "Feature",
			"geometry" : {
				"type" : "Point",
				"coordinates" : [ 76.4217, 35.8535 ]
			},
			"properties" : {
				"meters" : 7360,
				"name" : "Skil Brum"
			}
		},
		{
			"type" : "Feature",
			"geometry" : {
				"type" : "Point",
				"coordinates" : [ 86.613979, 28.073798 ]
			},
			"properties" : {
				"meters" : 7351,
				"name" : "Cho Aui (Nangpai Gosum I)"
			}
		},
		{
			"type" : "Feature",
			"geometry" : {
				"type" : "Point",
				"coordinates" : [ 71, 36 ]
			},
			"properties" : {
				"meters" : 7349,
				"name" : "Saraghrar"
			}
		},
		{
			"type" : "Feature",
			"geometry" : {
				"type" : "Point",
				"coordinates" : [ 86.97979, 27.775456 ]
			},
			"properties" : {
				"meters" : 7319,
				"name" : "Chamlang"
			}
		},
		{
			"type" : "Feature",
			"geometry" : {
				"type" : "Point",
				"coordinates" : [ 89.2667, 27.8333 ]
			},
			"properties" : {
				"meters" : 7314,
				"name" : "Chomolhari"
			}
		},
		{
			"type" : "Feature",
			"geometry" : {
				"type" : "Point",
				"coordinates" : [ 75.753822, 35.947717 ]
			},
			"properties" : {
				"meters" : 7285,
				"name" : "Baintha Brakk"
			}
		},
		{
			"type" : "Feature",
			"geometry" : {
				"type" : "Point",
				"coordinates" : [ 76.33, 35.25 ]
			},
			"properties" : {
				"meters" : 7282,
				"name" : "K-6 Baltistan Peak"
			}
		},
		{
			"type" : "Feature",
			"geometry" : {
				"type" : "Point",
				"coordinates" : [ 71.889167, 36.386944 ]
			},
			"properties" : {
				"meters" : 7276,
				"name" : "Istor-o-Nal"
			}
		},
		{
			"type" : "Feature",
			"geometry" : {
				"type" : "Point",
				"coordinates" : [ 76.3608, 35.8283 ]
			},
			"properties" : {
				"meters" : 7273,
				"name" : "Muztagh Tower"
			}
		},
		{
			"type" : "Feature",
			"geometry" : {
				"type" : "Point",
				"coordinates" : [ 74.6667, 36.1167 ]
			},
			"properties" : {
				"meters" : 7266,
				"name" : "Diran Peak"
			}
		},
		{
			"type" : "Feature",
			"geometry" : {
				"type" : "Point",
				"coordinates" : [ 35.648, 76.6697 ]
			},
			"properties" : {
				"meters" : 7265,
				"name" : "Baltoro Kangri"
			}
		},
		{
			"type" : "Feature",
			"geometry" : {
				"type" : "Point",
				"coordinates" : [ 86.9667, 28.05 ]
			},
			"properties" : {
				"meters" : 7227,
				"name" : "Khartaphu"
			}
		},
		{
			"type" : "Feature",
			"geometry" : {
				"type" : "Point",
				"coordinates" : [ 85.519444, 28.256111 ]
			},
			"properties" : {
				"meters" : 7227,
				"name" : "Langtang Lirung"
			}
		},
		{
			"type" : "Feature",
			"geometry" : {
				"type" : "Point",
				"coordinates" : [ 86.980043, 27.871636 ]
			},
			"properties" : {
				"meters" : 7220,
				"name" : "Baruntse"
			}
		},
		{
			"type" : "Feature",
			"geometry" : {
				"type" : "Point",
				"coordinates" : [ 83.805857, 28.518629 ]
			},
			"properties" : {
				"meters" : 7219,
				"name" : "Annapurna South"
			}
		},
		{
			"type" : "Feature",
			"geometry" : {
				"type" : "Point",
				"coordinates" : [ 76.983647, 35.599846 ]
			},
			"properties" : {
				"meters" : 7207,
				"name" : "Singhi Kangri"
			}
		},
		{
			"type" : "Feature",
			"geometry" : {
				"type" : "Point",
				"coordinates" : [ 90.1667, 28.9333 ]
			},
			"properties" : {
				"meters" : 7206,
				"name" : "Nojinkangsang"
			}
		},
		{
			"type" : "Feature",
			"geometry" : {
				"type" : "Point",
				"coordinates" : [ 85.683611, 28.381389 ]
			},
			"properties" : {
				"meters" : 7205,
				"name" : "Langtang Ri"
			}
		},
		{
			"type" : "Feature",
			"geometry" : {
				"type" : "Point",
				"coordinates" : [ 86.4333, 27.9667 ]
			},
			"properties" : {
				"meters" : 7181,
				"name" : "Melungtse"
			}
		},
		{
			"type" : "Feature",
			"geometry" : {
				"type" : "Point",
				"coordinates" : [ 86.432662, 27.972004 ]
			},
			"properties" : {
				"meters" : 7181,
				"name" : "Menlungtse"
			}
		},
		{
			"type" : "Feature",
			"geometry" : {
				"type" : "Point",
				"coordinates" : [ 79.2833, 30.7333 ]
			},
			"properties" : {
				"meters" : 7138,
				"name" : "Chaukhamba 1"
			}
		},
		{
			"type" : "Feature",
			"geometry" : {
				"type" : "Point",
				"coordinates" : [ 76.020584, 33.98077 ]
			},
			"properties" : {
				"meters" : 7135,
				"name" : "Nun Kun"
			}
		},
		{
			"type" : "Feature",
			"geometry" : {
				"type" : "Point",
				"coordinates" : [ 72.9167, 39.3333 ]
			},
			"properties" : {
				"meters" : 7134,
				"name" : "Pik Lenin"
			}
		},
		{
			"type" : "Feature",
			"geometry" : {
				"type" : "Point",
				"coordinates" : [ 86.3333, 27.9667 ]
			},
			"properties" : {
				"meters" : 7134,
				"name" : "Gauri Sankar"
			}
		},
		{
			"type" : "Feature",
			"geometry" : {
				"type" : "Point",
				"coordinates" : [ 80.9333, 30 ]
			},
			"properties" : {
				"meters" : 7132,
				"name" : "Api"
			}
		},
		{
			"type" : "Feature",
			"geometry" : {
				"type" : "Point",
				"coordinates" : [ 79.7833, 30.3167 ]
			},
			"properties" : {
				"meters" : 7120,
				"name" : "Trisul"
			}
		},
		{
			"type" : "Feature",
			"geometry" : {
				"type" : "Point",
				"coordinates" : [ 72.01, 39.057 ]
			},
			"properties" : {
				"meters" : 7105,
				"name" : "Pik Korjenevskaya"
			}
		},
		{
			"type" : "Feature",
			"geometry" : {
				"type" : "Point",
				"coordinates" : [ 71.9667, 36.55 ]
			},
			"properties" : {
				"meters" : 7084,
				"name" : "Shachaur"
			}
		},
		{
			"type" : "Feature",
			"geometry" : {
				"type" : "Point",
				"coordinates" : [ 85.8, 28.2 ]
			},
			"properties" : {
				"meters" : 7083,
				"name" : "Loengpogang"
			}
		},
		{
			"type" : "Feature",
			"geometry" : {
				"type" : "Point",
				"coordinates" : [ 79.8666, 30.6666 ]
			},
			"properties" : {
				"meters" : 7066,
				"name" : "Dunagiri"
			}
		},
		{
			"type" : "Feature",
			"geometry" : {
				"type" : "Point",
				"coordinates" : [ 86.969831, 28.037811 ]
			},
			"properties" : {
				"meters" : 7045,
				"name" : "Lhakpa Ri"
			}
		},
		{
			"type" : "Feature",
			"geometry" : {
				"type" : "Point",
				"coordinates" : [ 76.302795, 35.42207 ]
			},
			"properties" : {
				"meters" : 7041,
				"name" : "Link Sar"
			}
		},
		{
			"type" : "Feature",
			"geometry" : {
				"type" : "Point",
				"coordinates" : [ 84.3667, 28.85 ]
			},
			"properties" : {
				"meters" : 7035,
				"name" : "Ratna Chuli"
			}
		},
		{
			"type" : "Feature",
			"geometry" : {
				"type" : "Point",
				"coordinates" : [ 86.6333, 28.1167 ]
			},
			"properties" : {
				"meters" : 7013,
				"name" : "Palung Ri"
			}
		},
		{
			"type" : "Feature",
			"geometry" : {
				"type" : "Point",
				"coordinates" : [ 80.175, 42.2108 ]
			},
			"properties" : {
				"meters" : 7010,
				"name" : "Khan Tengri"
			}
		},
		{
			"type" : "Feature",
			"geometry" : {
				"type" : "Point",
				"coordinates" : [ 94.3, 31.5167 ]
			},
			"properties" : {
				"meters" : 6995,
				"name" : "Sepu Kangri"
			}
		},
		{
			"type" : "Feature",
			"geometry" : {
				"type" : "Point",
				"coordinates" : [ 87.384167, 36.4125 ]
			},
			"properties" : {
				"meters" : 6987,
				"name" : "Ulugh Muztagh"
			}
		},
		{
			"type" : "Feature",
			"geometry" : {
				"type" : "Point",
				"coordinates" : [ 86.789031, 27.730869 ]
			},
			"properties" : {
				"meters" : 6979,
				"name" : "Kangguru"
			}
		},
		{
			"type" : "Feature",
			"geometry" : {
				"type" : "Point",
				"coordinates" : [ 34.3667, 85.7667 ]
			},
			"properties" : {
				"meters" : 6972,
				"name" : "Zanzber Kangri"
			}
		},
		{
			"type" : "Feature",
			"geometry" : {
				"type" : "Point",
				"coordinates" : [ -70.011234, -32.653359 ]
			},
			"properties" : {
				"meters" : 6962,
				"name" : "Aconcagua"
			}
		},
		{
			"type" : "Feature",
			"geometry" : {
				"type" : "Point",
				"coordinates" : [ 72.3542, 38.5111 ]
			},
			"properties" : {
				"meters" : 6940,
				"name" : "Pik Revolution"
			}
		},
		{
			"type" : "Feature",
			"geometry" : {
				"type" : "Point",
				"coordinates" : [ 79.0667, 30.7833 ]
			},
			"properties" : {
				"meters" : 6940,
				"name" : "kedarnath"
			}
		},
		{
			"type" : "Feature",
			"geometry" : {
				"type" : "Point",
				"coordinates" : [ 80.42, 30.22 ]
			},
			"properties" : {
				"meters" : 6904,
				"name" : "Panchachuli"
			}
		},
		{
			"type" : "Feature",
			"geometry" : {
				"type" : "Point",
				"coordinates" : [ -68.540869, -27.109524 ]
			},
			"properties" : {
				"meters" : 6893,
				"name" : "Ojos del Salado"
			}
		},
		{
			"type" : "Feature",
			"geometry" : {
				"type" : "Point",
				"coordinates" : [ 73, 36.5833 ]
			},
			"properties" : {
				"meters" : 6889,
				"name" : "Koyo Zom"
			}
		},
		{
			"type" : "Feature",
			"geometry" : {
				"type" : "Point",
				"coordinates" : [ 82.778549, 29.368114 ]
			},
			"properties" : {
				"meters" : 6883,
				"name" : "Kanjiroba"
			}
		},
		{
			"type" : "Feature",
			"geometry" : {
				"type" : "Point",
				"coordinates" : [ -68.7667, -28.0167 ]
			},
			"properties" : {
				"meters" : 6872,
				"name" : "Cerro Bonete"
			}
		},
		{
			"type" : "Feature",
			"geometry" : {
				"type" : "Point",
				"coordinates" : [ 80.0666, 30.2666 ]
			},
			"properties" : {
				"meters" : 6861,
				"name" : "Nandakot"
			}
		},
		{
			"type" : "Feature",
			"geometry" : {
				"type" : "Point",
				"coordinates" : [ 79.15, 30.85 ]
			},
			"properties" : {
				"meters" : 6856,
				"name" : "Bhagirathi"
			}
		},
		{
			"type" : "Feature",
			"geometry" : {
				"type" : "Point",
				"coordinates" : [ 86.861111, 27.861111 ]
			},
			"properties" : {
				"meters" : 6856,
				"name" : "Ama Dablam"
			}
		},
		{
			"type" : "Feature",
			"geometry" : {
				"type" : "Point",
				"coordinates" : [ 72.8833, 39.3167 ]
			},
			"properties" : {
				"meters" : 6842,
				"name" : "Pik Marshal Zhukov"
			}
		},
		{
			"type" : "Feature",
			"geometry" : {
				"type" : "Point",
				"coordinates" : [ 79.0667, 30.7833 ]
			},
			"properties" : {
				"meters" : 6831,
				"name" : "Kedarnath Dome"
			}
		},
		{
			"type" : "Feature",
			"geometry" : {
				"type" : "Point",
				"coordinates" : [ 78.735624, 31.884373 ]
			},
			"properties" : {
				"meters" : 6816,
				"name" : "Reo pargil"
			}
		},
		{
			"type" : "Feature",
			"geometry" : {
				"type" : "Point",
				"coordinates" : [ 78.74249, 31.901935 ]
			},
			"properties" : {
				"meters" : 6816,
				"name" : "Leo Pargial"
			}
		},
		{
			"type" : "Feature",
			"geometry" : {
				"type" : "Point",
				"coordinates" : [ 86.816025, 28.01956 ]
			},
			"properties" : {
				"meters" : 6811,
				"name" : "Khangri Shar"
			}
		},
		{
			"type" : "Feature",
			"geometry" : {
				"type" : "Point",
				"coordinates" : [ 79.877472, 30.274486 ]
			},
			"properties" : {
				"meters" : 6803,
				"name" : "Maiktoli"
			}
		},
		{
			"type" : "Feature",
			"geometry" : {
				"type" : "Point",
				"coordinates" : [ 86.3667, 27.95 ]
			},
			"properties" : {
				"meters" : 6801,
				"name" : "Drangnag Ri"
			}
		},
		{
			"type" : "Feature",
			"geometry" : {
				"type" : "Point",
				"coordinates" : [ 88.150278, 27.7025 ]
			},
			"properties" : {
				"meters" : 6794,
				"name" : "Jichu Drake"
			}
		},
		{
			"type" : "Feature",
			"geometry" : {
				"type" : "Point",
				"coordinates" : [ 86.8167, 27.7833 ]
			},
			"properties" : {
				"meters" : 6782,
				"name" : "Kangtega"
			}
		},
		{
			"type" : "Feature",
			"geometry" : {
				"type" : "Point",
				"coordinates" : [ -68.85, -27.7833 ]
			},
			"properties" : {
				"meters" : 6779,
				"name" : "Monte Pissis"
			}
		},
		{
			"type" : "Feature",
			"geometry" : {
				"type" : "Point",
				"coordinates" : [ -70.1167, -31.9833 ]
			},
			"properties" : {
				"meters" : 6770,
				"name" : "Mercedario"
			}
		},
		{
			"type" : "Feature",
			"geometry" : {
				"type" : "Point",
				"coordinates" : [ -77.604246, -9.121504 ]
			},
			"properties" : {
				"meters" : 6768,
				"name" : "Huascaran"
			}
		},
		{
			"type" : "Feature",
			"geometry" : {
				"type" : "Point",
				"coordinates" : [ 98.5833, 28.3833 ]
			},
			"properties" : {
				"meters" : 6740,
				"name" : "Kang Karpo"
			}
		},
		{
			"type" : "Feature",
			"geometry" : {
				"type" : "Point",
				"coordinates" : [ 72.4819, 37.15 ]
			},
			"properties" : {
				"meters" : 6723,
				"name" : "Pik Karl Marx"
			}
		},
		{
			"type" : "Feature",
			"geometry" : {
				"type" : "Point",
				"coordinates" : [ -68.55, -24.7167 ]
			},
			"properties" : {
				"meters" : 6723,
				"name" : "Llullaillaco"
			}
		},
		{
			"type" : "Feature",
			"geometry" : {
				"type" : "Point",
				"coordinates" : [ 86.855249, 28.027554 ]
			},
			"properties" : {
				"meters" : 6714,
				"name" : "Lingtren"
			}
		},
		{
			"type" : "Feature",
			"geometry" : {
				"type" : "Point",
				"coordinates" : [ 81.3167, 31.0667 ]
			},
			"properties" : {
				"meters" : 6714,
				"name" : "Kailas"
			}
		},
		{
			"type" : "Feature",
			"geometry" : {
				"type" : "Point",
				"coordinates" : [ 79.95, 30.2833 ]
			},
			"properties" : {
				"meters" : 6663,
				"name" : "Panwali Dwar"
			}
		},
		{
			"type" : "Feature",
			"geometry" : {
				"type" : "Point",
				"coordinates" : [ 86.872416, 28.021492 ]
			},
			"properties" : {
				"meters" : 6636,
				"name" : "Khumbutse"
			}
		},
		{
			"type" : "Feature",
			"geometry" : {
				"type" : "Point",
				"coordinates" : [ -76.9, -10.2667 ]
			},
			"properties" : {
				"meters" : 6634,
				"name" : "Yerupaja"
			}
		},
		{
			"type" : "Feature",
			"geometry" : {
				"type" : "Point",
				"coordinates" : [ 86.8639, 27.8617 ]
			},
			"properties" : {
				"meters" : 6623,
				"name" : "Thamserku"
			}
		},
		{
			"type" : "Feature",
			"geometry" : {
				"type" : "Point",
				"coordinates" : [ 79.975833, 30.301667 ]
			},
			"properties" : {
				"meters" : 6611,
				"name" : "Nandakhat"
			}
		},
		{
			"type" : "Feature",
			"geometry" : {
				"type" : "Point",
				"coordinates" : [ 79.4, 0 ]
			},
			"properties" : {
				"meters" : 6597,
				"name" : "Nilkantha"
			}
		},
		{
			"type" : "Feature",
			"geometry" : {
				"type" : "Point",
				"coordinates" : [ 78.5167, 31.45 ]
			},
			"properties" : {
				"meters" : 6553,
				"name" : "Rangrik Rang"
			}
		},
		{
			"type" : "Feature",
			"geometry" : {
				"type" : "Point",
				"coordinates" : [ -69.7833, -33.3667 ]
			},
			"properties" : {
				"meters" : 6550,
				"name" : "Tupungato"
			}
		},
		{
			"type" : "Feature",
			"geometry" : {
				"type" : "Point",
				"coordinates" : [ -68.883076, -18.108003 ]
			},
			"properties" : {
				"meters" : 6542,
				"name" : "Sajama"
			}
		},
		{
			"type" : "Feature",
			"geometry" : {
				"type" : "Point",
				"coordinates" : [ 86.611919, 27.733452 ]
			},
			"properties" : {
				"meters" : 6511,
				"name" : "Karyolung"
			}
		},
		{
			"type" : "Feature",
			"geometry" : {
				"type" : "Point",
				"coordinates" : [ 72.5222, 37.1667 ]
			},
			"properties" : {
				"meters" : 6510,
				"name" : "Pik Engels"
			}
		},
		{
			"type" : "Feature",
			"geometry" : {
				"type" : "Point",
				"coordinates" : [ 87, 28.0167 ]
			},
			"properties" : {
				"meters" : 6507,
				"name" : "Kartse"
			}
		},
		{
			"type" : "Feature",
			"geometry" : {
				"type" : "Point",
				"coordinates" : [ -68.483889, -27.0575 ]
			},
			"properties" : {
				"meters" : 6488,
				"name" : "El Muerto"
			}
		},
		{
			"type" : "Feature",
			"geometry" : {
				"type" : "Point",
				"coordinates" : [ -67.787747, -16.636932 ]
			},
			"properties" : {
				"meters" : 6460,
				"name" : "Illimani"
			}
		},
		{
			"type" : "Feature",
			"geometry" : {
				"type" : "Point",
				"coordinates" : [ 86.766071, 27.919952 ]
			},
			"properties" : {
				"meters" : 6440,
				"name" : "Cholatse"
			}
		},
		{
			"type" : "Feature",
			"geometry" : {
				"type" : "Point",
				"coordinates" : [ -68.541641, -15.85427 ]
			},
			"properties" : {
				"meters" : 6430,
				"name" : "Ancohuma"
			}
		},
		{
			"type" : "Feature",
			"geometry" : {
				"type" : "Point",
				"coordinates" : [ 85.7136, 28.2169 ]
			},
			"properties" : {
				"meters" : 6427,
				"name" : "Langshisha Ri"
			}
		},
		{
			"type" : "Feature",
			"geometry" : {
				"type" : "Point",
				"coordinates" : [ -72.6572, -15.5203 ]
			},
			"properties" : {
				"meters" : 6425,
				"name" : "Coropuna"
			}
		},
		{
			"type" : "Feature",
			"geometry" : {
				"type" : "Point",
				"coordinates" : [ 80.267658, 42.281881 ]
			},
			"properties" : {
				"meters" : 6400,
				"name" : "Mramornaja Stena"
			}
		},
		{
			"type" : "Feature",
			"geometry" : {
				"type" : "Point",
				"coordinates" : [ -77.3, -9.53333 ]
			},
			"properties" : {
				"meters" : 6395,
				"name" : "Huantsan"
			}
		},
		{
			"type" : "Feature",
			"geometry" : {
				"type" : "Point",
				"coordinates" : [ -77.663341, -9.027636 ]
			},
			"properties" : {
				"meters" : 6395,
				"name" : "Huandoy"
			}
		},
		{
			"type" : "Feature",
			"geometry" : {
				"type" : "Point",
				"coordinates" : [ 78.3412, 31.0112 ]
			},
			"properties" : {
				"meters" : 6387,
				"name" : "Kalanag"
			}
		},
		{
			"type" : "Feature",
			"geometry" : {
				"type" : "Point",
				"coordinates" : [ -71.2308, -13.7881 ]
			},
			"properties" : {
				"meters" : 6384,
				"name" : "Ausangate"
			}
		},
		{
			"type" : "Feature",
			"geometry" : {
				"type" : "Point",
				"coordinates" : [ 80.17479, 42.21145 ]
			},
			"properties" : {
				"meters" : 6371,
				"name" : "Peak Chapayev"
			}
		},
		{
			"type" : "Feature",
			"geometry" : {
				"type" : "Point",
				"coordinates" : [ 86.788816, 27.730793 ]
			},
			"properties" : {
				"meters" : 6367,
				"name" : "Kusum Kangguru"
			}
		},
		{
			"type" : "Feature",
			"geometry" : {
				"type" : "Point",
				"coordinates" : [ -68.543358, -15.815997 ]
			},
			"properties" : {
				"meters" : 6362,
				"name" : "Illampu"
			}
		},
		{
			"type" : "Feature",
			"geometry" : {
				"type" : "Point",
				"coordinates" : [ -77.573905, -9.08718 ]
			},
			"properties" : {
				"meters" : 6354,
				"name" : "Chopicalqui"
			}
		},
		{
			"type" : "Feature",
			"geometry" : {
				"type" : "Point",
				"coordinates" : [ 84.025556, 28.743333 ]
			},
			"properties" : {
				"meters" : 6346,
				"name" : "Saribung"
			}
		},
		{
			"type" : "Feature",
			"geometry" : {
				"type" : "Point",
				"coordinates" : [ -76.8833, -10.2833 ]
			},
			"properties" : {
				"meters" : 6344,
				"name" : "Siula Grande"
			}
		},
		{
			"type" : "Feature",
			"geometry" : {
				"type" : "Point",
				"coordinates" : [ -68.8333, -18 ]
			},
			"properties" : {
				"meters" : 6342,
				"name" : "Nevado Parinacota"
			}
		},
		{
			"type" : "Feature",
			"geometry" : {
				"type" : "Point",
				"coordinates" : [ 80.041051, 30.290984 ]
			},
			"properties" : {
				"meters" : 6322,
				"name" : "Changuch"
			}
		},
		{
			"type" : "Feature",
			"geometry" : {
				"type" : "Point",
				"coordinates" : [ 78.55, 31 ]
			},
			"properties" : {
				"meters" : 6316,
				"name" : "Banderpunch"
			}
		},
		{
			"type" : "Feature",
			"geometry" : {
				"type" : "Point",
				"coordinates" : [ -69.4167, -33.0167 ]
			},
			"properties" : {
				"meters" : 6315,
				"name" : "Plata"
			}
		},
		{
			"type" : "Feature",
			"geometry" : {
				"type" : "Point",
				"coordinates" : [ 79.7166, 30.4666 ]
			},
			"properties" : {
				"meters" : 6309,
				"name" : "Nanda Ghunti"
			}
		},
		{
			"type" : "Feature",
			"geometry" : {
				"type" : "Point",
				"coordinates" : [ -74.53125, -14.604847 ]
			},
			"properties" : {
				"meters" : 6288,
				"name" : "Ampato"
			}
		},
		{
			"type" : "Feature",
			"geometry" : {
				"type" : "Point",
				"coordinates" : [ 99.4625, 34.798333 ]
			},
			"properties" : {
				"meters" : 6282,
				"name" : "Amne Machin"
			}
		},
		{
			"type" : "Feature",
			"geometry" : {
				"type" : "Point",
				"coordinates" : [ -72.545214, -13.333085 ]
			},
			"properties" : {
				"meters" : 6271,
				"name" : "Salcantay"
			}
		},
		{
			"type" : "Feature",
			"geometry" : {
				"type" : "Point",
				"coordinates" : [ -78.817034, -1.469175 ]
			},
			"properties" : {
				"meters" : 6268,
				"name" : "Chimborazo"
			}
		},
		{
			"type" : "Feature",
			"geometry" : {
				"type" : "Point",
				"coordinates" : [ 77.553862, 32.212528 ]
			},
			"properties" : {
				"meters" : 6265,
				"name" : "Mount Debachen"
			}
		},
		{
			"type" : "Feature",
			"geometry" : {
				"type" : "Point",
				"coordinates" : [ 86, 33.4667 ]
			},
			"properties" : {
				"meters" : 6262,
				"name" : "Mayer Kangri"
			}
		},
		{
			"type" : "Feature",
			"geometry" : {
				"type" : "Point",
				"coordinates" : [ 78.5, 31.1 ]
			},
			"properties" : {
				"meters" : 6252,
				"name" : "Swargarohini"
			}
		},
		{
			"type" : "Feature",
			"geometry" : {
				"type" : "Point",
				"coordinates" : [ -67.8167, -29.0333 ]
			},
			"properties" : {
				"meters" : 6250,
				"name" : "Nevados De Famatina"
			}
		},
		{
			"type" : "Feature",
			"geometry" : {
				"type" : "Point",
				"coordinates" : [ -67.8167, -29.0333 ]
			},
			"properties" : {
				"meters" : 6250,
				"name" : "Sierra De Famatina"
			}
		},
		{
			"type" : "Feature",
			"geometry" : {
				"type" : "Point",
				"coordinates" : [ 76.410298, 35.591645 ]
			},
			"properties" : {
				"meters" : 6200,
				"name" : "Laila Peak"
			}
		},
		{
			"type" : "Feature",
			"geometry" : {
				"type" : "Point",
				"coordinates" : [ -151.004, 63.0694 ]
			},
			"properties" : {
				"meters" : 6194,
				"name" : "Mount McKinley"
			}
		},
		{
			"type" : "Feature",
			"geometry" : {
				"type" : "Point",
				"coordinates" : [ 80.651983, 30.28529 ]
			},
			"properties" : {
				"meters" : 6191,
				"name" : "Adi Kailash"
			}
		},
		{
			"type" : "Feature",
			"geometry" : {
				"type" : "Point",
				"coordinates" : [ 81.034704, 30.198803 ]
			},
			"properties" : {
				"meters" : 6191,
				"name" : "Om Parvat"
			}
		},
		{
			"type" : "Feature",
			"geometry" : {
				"type" : "Point",
				"coordinates" : [ 77.6806, 32.1044 ]
			},
			"properties" : {
				"meters" : 6187,
				"name" : "Mount Rubal Kang"
			}
		},
		{
			"type" : "Feature",
			"geometry" : {
				"type" : "Point",
				"coordinates" : [ 94.2167, 35.6667 ]
			},
			"properties" : {
				"meters" : 6178,
				"name" : "Yuzhu Feng"
			}
		},
		{
			"type" : "Feature",
			"geometry" : {
				"type" : "Point",
				"coordinates" : [ -68.4667, -21.2167 ]
			},
			"properties" : {
				"meters" : 6176,
				"name" : "Aucanquilcha"
			}
		},
		{
			"type" : "Feature",
			"geometry" : {
				"type" : "Point",
				"coordinates" : [ -77.481638, -9.26729 ]
			},
			"properties" : {
				"meters" : 6173,
				"name" : "Copa Norte"
			}
		},
		{
			"type" : "Feature",
			"geometry" : {
				"type" : "Point",
				"coordinates" : [ -77.4, -9.41667 ]
			},
			"properties" : {
				"meters" : 6162,
				"name" : "Ranrapalca"
			}
		},
		{
			"type" : "Feature",
			"geometry" : {
				"type" : "Point",
				"coordinates" : [ -77.669477, -9.035816 ]
			},
			"properties" : {
				"meters" : 6160,
				"name" : "Huandoy Sur"
			}
		},
		{
			"type" : "Feature",
			"geometry" : {
				"type" : "Point",
				"coordinates" : [ -69.910126, -29.928755 ]
			},
			"properties" : {
				"meters" : 6160,
				"name" : "Cerro de las Tortolas"
			}
		},
		{
			"type" : "Feature",
			"geometry" : {
				"type" : "Point",
				"coordinates" : [ -68.391094, -21.887784 ]
			},
			"properties" : {
				"meters" : 6145,
				"name" : "San Pedro"
			}
		},
		{
			"type" : "Feature",
			"geometry" : {
				"type" : "Point",
				"coordinates" : [ -76.4319, -10.3297 ]
			},
			"properties" : {
				"meters" : 6126,
				"name" : "Jirishanca"
			}
		},
		{
			"type" : "Feature",
			"geometry" : {
				"type" : "Point",
				"coordinates" : [ 77.4425, 33.986111 ]
			},
			"properties" : {
				"meters" : 6121,
				"name" : "Stok Kangri"
			}
		},
		{
			"type" : "Feature",
			"geometry" : {
				"type" : "Point",
				"coordinates" : [ 86.7899, 27.9595 ]
			},
			"properties" : {
				"meters" : 6119,
				"name" : "Lobuche East"
			}
		},
		{
			"type" : "Feature",
			"geometry" : {
				"type" : "Point",
				"coordinates" : [ -68.1833, -16.2667 ]
			},
			"properties" : {
				"meters" : 6094,
				"name" : "Huayna Potosi"
			}
		},
		{
			"type" : "Feature",
			"geometry" : {
				"type" : "Point",
				"coordinates" : [ -72.8936, -15.41 ]
			},
			"properties" : {
				"meters" : 6093,
				"name" : "Nevado Solimana"
			}
		},
		{
			"type" : "Feature",
			"geometry" : {
				"type" : "Point",
				"coordinates" : [ -73.008099, -13.177526 ]
			},
			"properties" : {
				"meters" : 6070,
				"name" : "Pumasillo"
			}
		},
		{
			"type" : "Feature",
			"geometry" : {
				"type" : "Point",
				"coordinates" : [ -69.083448, -18.416397 ]
			},
			"properties" : {
				"meters" : 6063,
				"name" : "Guallatiri"
			}
		},
		{
			"type" : "Feature",
			"geometry" : {
				"type" : "Point",
				"coordinates" : [ 84.0851, 28.7311 ]
			},
			"properties" : {
				"meters" : 6059,
				"name" : "Chulu (Far) East"
			}
		},
		{
			"type" : "Feature",
			"geometry" : {
				"type" : "Point",
				"coordinates" : [ -71.53, -16.191 ]
			},
			"properties" : {
				"meters" : 6057,
				"name" : "Chachani"
			}
		},
		{
			"type" : "Feature",
			"geometry" : {
				"type" : "Point",
				"coordinates" : [ -69.05, -18.383 ]
			},
			"properties" : {
				"meters" : 6052,
				"name" : "Acotango"
			}
		},
		{
			"type" : "Feature",
			"geometry" : {
				"type" : "Point",
				"coordinates" : [ -77.665272, -8.89847 ]
			},
			"properties" : {
				"meters" : 6040,
				"name" : "Quitaraju"
			}
		},
		{
			"type" : "Feature",
			"geometry" : {
				"type" : "Point",
				"coordinates" : [ -68.2631, -26.9186 ]
			},
			"properties" : {
				"meters" : 6018,
				"name" : "Cerro San Francisco"
			}
		},
		{
			"type" : "Feature",
			"geometry" : {
				"type" : "Point",
				"coordinates" : [ 86.6667, 27.9167 ]
			},
			"properties" : {
				"meters" : 6017,
				"name" : "Pharilapcha"
			}
		},
		{
			"type" : "Feature",
			"geometry" : {
				"type" : "Point",
				"coordinates" : [ 77.3972, 32.2114 ]
			},
			"properties" : {
				"meters" : 6001,
				"name" : "Deo Tibba"
			}
		},
		{
			"type" : "Feature",
			"geometry" : {
				"type" : "Point",
				"coordinates" : [ 85.5833, 28.25 ]
			},
			"properties" : {
				"meters" : 6000,
				"name" : "Thapa Peak"
			}
		},
		{
			"type" : "Feature",
			"geometry" : {
				"type" : "Point",
				"coordinates" : [ -69.977074, -32.628099 ]
			},
			"properties" : {
				"meters" : 5970,
				"name" : "Ameghino"
			}
		},
		{
			"type" : "Feature",
			"geometry" : {
				"type" : "Point",
				"coordinates" : [ -140.4, 60.5667 ]
			},
			"properties" : {
				"meters" : 5959,
				"name" : "Mount Logan"
			}
		},
		{
			"type" : "Feature",
			"geometry" : {
				"type" : "Point",
				"coordinates" : [ -66.1667, -24.3833 ]
			},
			"properties" : {
				"meters" : 5950,
				"name" : "Nevado De Acay"
			}
		},
		{
			"type" : "Feature",
			"geometry" : {
				"type" : "Point",
				"coordinates" : [ 72.5556, 38.6028 ]
			},
			"properties" : {
				"meters" : 5947,
				"name" : "Kholodnaja Stena"
			}
		},
		{
			"type" : "Feature",
			"geometry" : {
				"type" : "Point",
				"coordinates" : [ -77.654371, -8.878203 ]
			},
			"properties" : {
				"meters" : 5947,
				"name" : "Alpamayo"
			}
		},
		{
			"type" : "Feature",
			"geometry" : {
				"type" : "Point",
				"coordinates" : [ -67.8833, -22.8333 ]
			},
			"properties" : {
				"meters" : 5930,
				"name" : "Licancabur"
			}
		},
		{
			"type" : "Feature",
			"geometry" : {
				"type" : "Point",
				"coordinates" : [ 86.419873, 27.813913 ]
			},
			"properties" : {
				"meters" : 5925,
				"name" : "Ramdung"
			}
		},
		{
			"type" : "Feature",
			"geometry" : {
				"type" : "Point",
				"coordinates" : [ -78.437778, -0.680556 ]
			},
			"properties" : {
				"meters" : 5897,
				"name" : "Cotopaxi"
			}
		},
		{
			"type" : "Feature",
			"geometry" : {
				"type" : "Point",
				"coordinates" : [ 37.35, -3.06667 ]
			},
			"properties" : {
				"meters" : 5895,
				"name" : "Mount Kilimanjaro"
			}
		},
		{
			"type" : "Feature",
			"geometry" : {
				"type" : "Point",
				"coordinates" : [ 76.891251, 33.110523 ]
			},
			"properties" : {
				"meters" : 5889,
				"name" : "Forgotten Peak"
			}
		},
		{
			"type" : "Feature",
			"geometry" : {
				"type" : "Point",
				"coordinates" : [ 97.4667, 28.3167 ]
			},
			"properties" : {
				"meters" : 5881,
				"name" : "Hkakabo Razi"
			}
		},
		{
			"type" : "Feature",
			"geometry" : {
				"type" : "Point",
				"coordinates" : [ -69.82353, -30.33021 ]
			},
			"properties" : {
				"meters" : 5879,
				"name" : "COMANDANTE CABOT"
			}
		},
		{
			"type" : "Feature",
			"geometry" : {
				"type" : "Point",
				"coordinates" : [ -67.833333, -16.5 ]
			},
			"properties" : {
				"meters" : 5865,
				"name" : "Mururata"
			}
		},
		{
			"type" : "Feature",
			"geometry" : {
				"type" : "Point",
				"coordinates" : [ -69.589462, -18.181409 ]
			},
			"properties" : {
				"meters" : 5860,
				"name" : "Taapaca"
			}
		},
		{
			"type" : "Feature",
			"geometry" : {
				"type" : "Point",
				"coordinates" : [ 83.5481, 28.1786 ]
			},
			"properties" : {
				"meters" : 5846,
				"name" : "Naya Kanga"
			}
		},
		{
			"type" : "Feature",
			"geometry" : {
				"type" : "Point",
				"coordinates" : [ -71.4, -16.3 ]
			},
			"properties" : {
				"meters" : 5822,
				"name" : "El Misti"
			}
		},
		{
			"type" : "Feature",
			"geometry" : {
				"type" : "Point",
				"coordinates" : [ -72.3847, -13.1772 ]
			},
			"properties" : {
				"meters" : 5822,
				"name" : "Nevado Veronica"
			}
		},
		{
			"type" : "Feature",
			"geometry" : {
				"type" : "Point",
				"coordinates" : [ 78.898831, 30.81038 ]
			},
			"properties" : {
				"meters" : 5819,
				"name" : "Rudragaira"
			}
		},
		{
			"type" : "Feature",
			"geometry" : {
				"type" : "Point",
				"coordinates" : [ 86.8333, 27.9333 ]
			},
			"properties" : {
				"meters" : 5794,
				"name" : "Pokhalde"
			}
		},
		{
			"type" : "Feature",
			"geometry" : {
				"type" : "Point",
				"coordinates" : [ -77.989197, 0.025105 ]
			},
			"properties" : {
				"meters" : 5790,
				"name" : "Cayambe"
			}
		},
		{
			"type" : "Feature",
			"geometry" : {
				"type" : "Point",
				"coordinates" : [ -67.70196, -23.580665 ]
			},
			"properties" : {
				"meters" : 5778,
				"name" : "Chilques"
			}
		},
		{
			"type" : "Feature",
			"geometry" : {
				"type" : "Point",
				"coordinates" : [ -73.686762, 10.838575 ]
			},
			"properties" : {
				"meters" : 5775,
				"name" : "Pico Cristobal Colon"
			}
		},
		{
			"type" : "Feature",
			"geometry" : {
				"type" : "Point",
				"coordinates" : [ -76, 3 ]
			},
			"properties" : {
				"meters" : 5750,
				"name" : "Nevado de Huila"
			}
		},
		{
			"type" : "Feature",
			"geometry" : {
				"type" : "Point",
				"coordinates" : [ -76.050668, -11.96649 ]
			},
			"properties" : {
				"meters" : 5750,
				"name" : "Pariacaca"
			}
		},
		{
			"type" : "Feature",
			"geometry" : {
				"type" : "Point",
				"coordinates" : [ 85.5325, 28.1671 ]
			},
			"properties" : {
				"meters" : 5718,
				"name" : "Baden-Powell Peak"
			}
		},
		{
			"type" : "Feature",
			"geometry" : {
				"type" : "Point",
				"coordinates" : [ -77.5333, -9.51667 ]
			},
			"properties" : {
				"meters" : 5686,
				"name" : "Vallunaraju"
			}
		},
		{
			"type" : "Feature",
			"geometry" : {
				"type" : "Point",
				"coordinates" : [ 52.1086, 35.9558 ]
			},
			"properties" : {
				"meters" : 5670,
				"name" : "Damavand"
			}
		},
		{
			"type" : "Feature",
			"geometry" : {
				"type" : "Point",
				"coordinates" : [ -71.2533, -16.4414 ]
			},
			"properties" : {
				"meters" : 5664,
				"name" : "Picchu Picchu"
			}
		},
		{
			"type" : "Feature",
			"geometry" : {
				"type" : "Point",
				"coordinates" : [ -68.242693, -16.168269 ]
			},
			"properties" : {
				"meters" : 5648,
				"name" : "Condoriri"
			}
		},
		{
			"type" : "Feature",
			"geometry" : {
				"type" : "Point",
				"coordinates" : [ 42.4392, 43.355 ]
			},
			"properties" : {
				"meters" : 5642,
				"name" : "Mount Elbrus"
			}
		},
		{
			"type" : "Feature",
			"geometry" : {
				"type" : "Point",
				"coordinates" : [ -68.5667, -23.3667 ]
			},
			"properties" : {
				"meters" : 5641,
				"name" : "Lascar"
			}
		},
		{
			"type" : "Feature",
			"geometry" : {
				"type" : "Point",
				"coordinates" : [ -97.2667, 19.0167 ]
			},
			"properties" : {
				"meters" : 5610,
				"name" : "Pico de Orizaba"
			}
		},
		{
			"type" : "Feature",
			"geometry" : {
				"type" : "Point",
				"coordinates" : [ -67.7667, -22.9333 ]
			},
			"properties" : {
				"meters" : 5604,
				"name" : "Cerro Toco"
			}
		},
		{
			"type" : "Feature",
			"geometry" : {
				"type" : "Point",
				"coordinates" : [ 100.167, 0 ]
			},
			"properties" : {
				"meters" : 5596,
				"name" : "Yulong Xue Shan"
			}
		},
		{
			"type" : "Feature",
			"geometry" : {
				"type" : "Point",
				"coordinates" : [ -67.940784, -16.392161 ]
			},
			"properties" : {
				"meters" : 5546,
				"name" : "Serkhe Khollu"
			}
		},
		{
			"type" : "Feature",
			"geometry" : {
				"type" : "Point",
				"coordinates" : [ 86.828417, 27.995833 ]
			},
			"properties" : {
				"meters" : 5545,
				"name" : "Kala Pattar"
			}
		},
		{
			"type" : "Feature",
			"geometry" : {
				"type" : "Point",
				"coordinates" : [ 77.823056, 35.513333 ]
			},
			"properties" : {
				"meters" : 5540,
				"name" : "Karakoram Pass"
			}
		},
		{
			"type" : "Feature",
			"geometry" : {
				"type" : "Point",
				"coordinates" : [ -69.932604, -30.143686 ]
			},
			"properties" : {
				"meters" : 5536,
				"name" : "Cerro Tapado"
			}
		},
		{
			"type" : "Feature",
			"geometry" : {
				"type" : "Point",
				"coordinates" : [ -69.8667, -33.5333 ]
			},
			"properties" : {
				"meters" : 5520,
				"name" : "Cerro Piramide"
			}
		},
		{
			"type" : "Feature",
			"geometry" : {
				"type" : "Point",
				"coordinates" : [ 85.6167, 28.25 ]
			},
			"properties" : {
				"meters" : 5520,
				"name" : "Yala Peak"
			}
		},
		{
			"type" : "Feature",
			"geometry" : {
				"type" : "Point",
				"coordinates" : [ -68.332773, -16.068961 ]
			},
			"properties" : {
				"meters" : 5512,
				"name" : "Jankho Huyo"
			}
		},
		{
			"type" : "Feature",
			"geometry" : {
				"type" : "Point",
				"coordinates" : [ -140.929, 60.2933 ]
			},
			"properties" : {
				"meters" : 5489,
				"name" : "Mount Saint Elias"
			}
		},
		{
			"type" : "Feature",
			"geometry" : {
				"type" : "Point",
				"coordinates" : [ -69.8333, -32.6667 ]
			},
			"properties" : {
				"meters" : 5462,
				"name" : "Cerro Cuerno"
			}
		},
		{
			"type" : "Feature",
			"geometry" : {
				"type" : "Point",
				"coordinates" : [ -77.576652, -9.027054 ]
			},
			"properties" : {
				"meters" : 5460,
				"name" : "Yanapaccha"
			}
		},
		{
			"type" : "Feature",
			"geometry" : {
				"type" : "Point",
				"coordinates" : [ -98.6333, 19.0333 ]
			},
			"properties" : {
				"meters" : 5452,
				"name" : "Popocatepetl"
			}
		},
		{
			"type" : "Feature",
			"geometry" : {
				"type" : "Point",
				"coordinates" : [ 88.5333, 43.75 ]
			},
			"properties" : {
				"meters" : 5445,
				"name" : "Bogda Peak"
			}
		},
		{
			"type" : "Feature",
			"geometry" : {
				"type" : "Point",
				"coordinates" : [ -70.0333, -32.8 ]
			},
			"properties" : {
				"meters" : 5432,
				"name" : "Tolosa"
			}
		},
		{
			"type" : "Feature",
			"geometry" : {
				"type" : "Point",
				"coordinates" : [ -70.2333, -33.2667 ]
			},
			"properties" : {
				"meters" : 5430,
				"name" : "El Plomo"
			}
		},
		{
			"type" : "Feature",
			"geometry" : {
				"type" : "Point",
				"coordinates" : [ -67.941159, -16.431907 ]
			},
			"properties" : {
				"meters" : 5421,
				"name" : "Hati Khollu"
			}
		},
		{
			"type" : "Feature",
			"geometry" : {
				"type" : "Point",
				"coordinates" : [ -69.43265, -32.96986 ]
			},
			"properties" : {
				"meters" : 5400,
				"name" : "Rincón"
			}
		},
		{
			"type" : "Feature",
			"geometry" : {
				"type" : "Point",
				"coordinates" : [ 100.191, 27.3394 ]
			},
			"properties" : {
				"meters" : 5396,
				"name" : "Haba Xue Shan"
			}
		},
		{
			"type" : "Feature",
			"geometry" : {
				"type" : "Point",
				"coordinates" : [ -68.3, -16.1167 ]
			},
			"properties" : {
				"meters" : 5368,
				"name" : "Cerro Mullu Apachita"
			}
		},
		{
			"type" : "Feature",
			"geometry" : {
				"type" : "Point",
				"coordinates" : [ -69.430106, -32.968581 ]
			},
			"properties" : {
				"meters" : 5364,
				"name" : "Cerro Rincón"
			}
		},
		{
			"type" : "Feature",
			"geometry" : {
				"type" : "Point",
				"coordinates" : [ 86.683214, 27.962089 ]
			},
			"properties" : {
				"meters" : 5357,
				"name" : "Gokyo Ri"
			}
		},
		{
			"type" : "Feature",
			"geometry" : {
				"type" : "Point",
				"coordinates" : [ -70, 0 ]
			},
			"properties" : {
				"meters" : 5350,
				"name" : "Cerro Alto Rio Blanco"
			}
		},
		{
			"type" : "Feature",
			"geometry" : {
				"type" : "Point",
				"coordinates" : [ -72.3167, 6.5 ]
			},
			"properties" : {
				"meters" : 5330,
				"name" : "Ritak' Uwa Blanco (Ritacuba Blanco)"
			}
		},
		{
			"type" : "Feature",
			"geometry" : {
				"type" : "Point",
				"coordinates" : [ -68.2575, -16.189753 ]
			},
			"properties" : {
				"meters" : 5328,
				"name" : "Pico Austria"
			}
		},
		{
			"type" : "Feature",
			"geometry" : {
				"type" : "Point",
				"coordinates" : [ -68.079058, -16.312366 ]
			},
			"properties" : {
				"meters" : 5324,
				"name" : "Wila Manquilisani"
			}
		},
		{
			"type" : "Feature",
			"geometry" : {
				"type" : "Point",
				"coordinates" : [ -75.3667, 4.88333 ]
			},
			"properties" : {
				"meters" : 5320,
				"name" : "Nevado del Ruiz"
			}
		},
		{
			"type" : "Feature",
			"geometry" : {
				"type" : "Point",
				"coordinates" : [ -77.485844, -9.29177 ]
			},
			"properties" : {
				"meters" : 5315,
				"name" : "Vicos"
			}
		},
		{
			"type" : "Feature",
			"geometry" : {
				"type" : "Point",
				"coordinates" : [ -151.398, 62.9608 ]
			},
			"properties" : {
				"meters" : 5304,
				"name" : "Mount Foraker"
			}
		},
		{
			"type" : "Feature",
			"geometry" : {
				"type" : "Point",
				"coordinates" : [ 77.257097, 32.961686 ]
			},
			"properties" : {
				"meters" : 5300,
				"name" : "Gumburanjo"
			}
		},
		{
			"type" : "Feature",
			"geometry" : {
				"type" : "Point",
				"coordinates" : [ -77.384992, -9.377226 ]
			},
			"properties" : {
				"meters" : 5300,
				"name" : "Milpocraju"
			}
		},
		{
			"type" : "Feature",
			"geometry" : {
				"type" : "Point",
				"coordinates" : [ 73.726587, 34.82761 ]
			},
			"properties" : {
				"meters" : 5290,
				"name" : "Malika Parbat"
			}
		},
		{
			"type" : "Feature",
			"geometry" : {
				"type" : "Point",
				"coordinates" : [ -98.6333, 19.1833 ]
			},
			"properties" : {
				"meters" : 5286,
				"name" : "Iztaccihuatl"
			}
		},
		{
			"type" : "Feature",
			"geometry" : {
				"type" : "Point",
				"coordinates" : [ -78.713611, -0.659444 ]
			},
			"properties" : {
				"meters" : 5248,
				"name" : "Iliniza Sur"
			}
		},
		{
			"type" : "Feature",
			"geometry" : {
				"type" : "Point",
				"coordinates" : [ -68.292347, -16.067064 ]
			},
			"properties" : {
				"meters" : 5245,
				"name" : "Wila Llojeta"
			}
		},
		{
			"type" : "Feature",
			"geometry" : {
				"type" : "Point",
				"coordinates" : [ 91.0333, 29.7 ]
			},
			"properties" : {
				"meters" : 5240,
				"name" : "Gompe Utse"
			}
		},
		{
			"type" : "Feature",
			"geometry" : {
				"type" : "Point",
				"coordinates" : [ -78.341274, -2.004853 ]
			},
			"properties" : {
				"meters" : 5230,
				"name" : "Sangay"
			}
		},
		{
			"type" : "Feature",
			"geometry" : {
				"type" : "Point",
				"coordinates" : [ -140.467, 61.0167 ]
			},
			"properties" : {
				"meters" : 5226,
				"name" : "Mount Lucania"
			}
		},
		{
			"type" : "Feature",
			"geometry" : {
				"type" : "Point",
				"coordinates" : [ -68.163171, -26.834104 ]
			},
			"properties" : {
				"meters" : 5225,
				"name" : "Volcan Bertrand"
			}
		},
		{
			"type" : "Feature",
			"geometry" : {
				"type" : "Point",
				"coordinates" : [ -67.938149, -16.450572 ]
			},
			"properties" : {
				"meters" : 5224,
				"name" : "Cerro Khasiri"
			}
		},
		{
			"type" : "Feature",
			"geometry" : {
				"type" : "Point",
				"coordinates" : [ -68.233295, -16.208381 ]
			},
			"properties" : {
				"meters" : 5224,
				"name" : "Jallayco"
			}
		},
		{
			"type" : "Feature",
			"geometry" : {
				"type" : "Point",
				"coordinates" : [ -75.33, 4.67 ]
			},
			"properties" : {
				"meters" : 5215,
				"name" : "Nevado del Tolima"
			}
		},
		{
			"type" : "Feature",
			"geometry" : {
				"type" : "Point",
				"coordinates" : [ -75.37, 4.82 ]
			},
			"properties" : {
				"meters" : 5210,
				"name" : "Santa Isabel"
			}
		},
		{
			"type" : "Feature",
			"geometry" : {
				"type" : "Point",
				"coordinates" : [ 43.1333, 43.05 ]
			},
			"properties" : {
				"meters" : 5204,
				"name" : "Dykh-Tau"
			}
		},
		{
			"type" : "Feature",
			"geometry" : {
				"type" : "Point",
				"coordinates" : [ 43.1, 43 ]
			},
			"properties" : {
				"meters" : 5200,
				"name" : "Shkhara"
			}
		},
		{
			"type" : "Feature",
			"geometry" : {
				"type" : "Point",
				"coordinates" : [ -69.429817, -32.970364 ]
			},
			"properties" : {
				"meters" : 5200,
				"name" : "Colorado"
			}
		},
		{
			"type" : "Feature",
			"geometry" : {
				"type" : "Point",
				"coordinates" : [ 37.3, -0.15 ]
			},
			"properties" : {
				"meters" : 5199,
				"name" : "Mount Kenya"
			}
		},
		{
			"type" : "Feature",
			"geometry" : {
				"type" : "Point",
				"coordinates" : [ -69.9833, -34.75 ]
			},
			"properties" : {
				"meters" : 5189,
				"name" : "Cerro Sosneado"
			}
		},
		{
			"type" : "Feature",
			"geometry" : {
				"type" : "Point",
				"coordinates" : [ -140.653, 60.5825 ]
			},
			"properties" : {
				"meters" : 5173,
				"name" : "King Peak"
			}
		},
		{
			"type" : "Feature",
			"geometry" : {
				"type" : "Point",
				"coordinates" : [ 44.3, 39.7 ]
			},
			"properties" : {
				"meters" : 5165,
				"name" : "Mount Ararat"
			}
		},
		{
			"type" : "Feature",
			"geometry" : {
				"type" : "Point",
				"coordinates" : [ 76.0167, 33.7833 ]
			},
			"properties" : {
				"meters" : 5148,
				"name" : "Harmukh"
			}
		},
		{
			"type" : "Feature",
			"geometry" : {
				"type" : "Point",
				"coordinates" : [ 43.2167, 43.05 ]
			},
			"properties" : {
				"meters" : 5144,
				"name" : "Koshtan-Tau"
			}
		},
		{
			"type" : "Feature",
			"geometry" : {
				"type" : "Point",
				"coordinates" : [ -69.425957, -32.898847 ]
			},
			"properties" : {
				"meters" : 5127,
				"name" : "Blanco"
			}
		},
		{
			"type" : "Feature",
			"geometry" : {
				"type" : "Point",
				"coordinates" : [ 68.199556, 39.18204 ]
			},
			"properties" : {
				"meters" : 5120,
				"name" : "Energia"
			}
		},
		{
			"type" : "Feature",
			"geometry" : {
				"type" : "Point",
				"coordinates" : [ -68.261791, -16.198737 ]
			},
			"properties" : {
				"meters" : 5120,
				"name" : "Cuchillo Khuno"
			}
		},
		{
			"type" : "Feature",
			"geometry" : {
				"type" : "Point",
				"coordinates" : [ 29.8667, 0.383333 ]
			},
			"properties" : {
				"meters" : 5109,
				"name" : "Mount Stanley"
			}
		},
		{
			"type" : "Feature",
			"geometry" : {
				"type" : "Point",
				"coordinates" : [ 29.873639, 0.380319 ]
			},
			"properties" : {
				"meters" : 5109,
				"name" : "Margherita"
			}
		},
		{
			"type" : "Feature",
			"geometry" : {
				"type" : "Point",
				"coordinates" : [ -69.375959, -18.123309 ]
			},
			"properties" : {
				"meters" : 5096,
				"name" : "Guane Guane"
			}
		},
		{
			"type" : "Feature",
			"geometry" : {
				"type" : "Point",
				"coordinates" : [ -86.8337, 27.904 ]
			},
			"properties" : {
				"meters" : 5083,
				"name" : "Nangkartshang Peak"
			}
		},
		{
			"type" : "Feature",
			"geometry" : {
				"type" : "Point",
				"coordinates" : [ -72.15, 6.5 ]
			},
			"properties" : {
				"meters" : 5081,
				"name" : "Nevado del Cocuy"
			}
		},
		{
			"type" : "Feature",
			"geometry" : {
				"type" : "Point",
				"coordinates" : [ -140.311117, 61.093114 ]
			},
			"properties" : {
				"meters" : 5073,
				"name" : "Mount Steele"
			}
		},
		{
			"type" : "Feature",
			"geometry" : {
				"type" : "Point",
				"coordinates" : [ 68.2, 39.216667 ]
			},
			"properties" : {
				"meters" : 5070,
				"name" : "Zamok"
			}
		},
		{
			"type" : "Feature",
			"geometry" : {
				"type" : "Point",
				"coordinates" : [ 44.518533, 42.696851 ]
			},
			"properties" : {
				"meters" : 5047,
				"name" : "Kazbek"
			}
		},
		{
			"type" : "Feature",
			"geometry" : {
				"type" : "Point",
				"coordinates" : [ -78.442, 1.467 ]
			},
			"properties" : {
				"meters" : 5023,
				"name" : "Tungurahua"
			}
		},
		{
			"type" : "Feature",
			"geometry" : {
				"type" : "Point",
				"coordinates" : [ 77.3, 43.1 ]
			},
			"properties" : {
				"meters" : 5020,
				"name" : "Pik Talgar"
			}
		},
		{
			"type" : "Feature",
			"geometry" : {
				"type" : "Point",
				"coordinates" : [ -68.064724, -16.317309 ]
			},
			"properties" : {
				"meters" : 5006,
				"name" : "Wila Llojo"
			}
		},
		{
			"type" : "Feature",
			"geometry" : {
				"type" : "Point",
				"coordinates" : [ -141.749, 61.3856 ]
			},
			"properties" : {
				"meters" : 5005,
				"name" : "Bona"
			}
		},
		{
			"type" : "Feature",
			"geometry" : {
				"type" : "Point",
				"coordinates" : [ -143.433, 61.7317 ]
			},
			"properties" : {
				"meters" : 4996,
				"name" : "Mount Blackburn"
			}
		},
		{
			"type" : "Feature",
			"geometry" : {
				"type" : "Point",
				"coordinates" : [ -71.0425, 8.54361 ]
			},
			"properties" : {
				"meters" : 4978,
				"name" : "Pico Bolivar"
			}
		},
		{
			"type" : "Feature",
			"geometry" : {
				"type" : "Point",
				"coordinates" : [ -68.04833, -16.317885 ]
			},
			"properties" : {
				"meters" : 4968,
				"name" : "Kolini"
			}
		},
		{
			"type" : "Feature",
			"geometry" : {
				"type" : "Point",
				"coordinates" : [ 73, 39.4333 ]
			},
			"properties" : {
				"meters" : 4950,
				"name" : "Myra I"
			}
		},
		{
			"type" : "Feature",
			"geometry" : {
				"type" : "Point",
				"coordinates" : [ -144.129, 62.2139 ]
			},
			"properties" : {
				"meters" : 4949,
				"name" : "Mount Sanford"
			}
		},
		{
			"type" : "Feature",
			"geometry" : {
				"type" : "Point",
				"coordinates" : [ -71, 8.55 ]
			},
			"properties" : {
				"meters" : 4942,
				"name" : "Humboldt"
			}
		},
		{
			"type" : "Feature",
			"geometry" : {
				"type" : "Point",
				"coordinates" : [ -68.271919, -16.215469 ]
			},
			"properties" : {
				"meters" : 4926,
				"name" : "Kollpani"
			}
		},
		{
			"type" : "Feature",
			"geometry" : {
				"type" : "Point",
				"coordinates" : [ -85.4167, -78.5833 ]
			},
			"properties" : {
				"meters" : 4897,
				"name" : "Vinson Massif"
			}
		},
		{
			"type" : "Feature",
			"geometry" : {
				"type" : "Point",
				"coordinates" : [ -78.367882, -0.538494 ]
			},
			"properties" : {
				"meters" : 4893,
				"name" : "Sincholagua"
			}
		},
		{
			"type" : "Feature",
			"geometry" : {
				"type" : "Point",
				"coordinates" : [ 29.8833, 0.4 ]
			},
			"properties" : {
				"meters" : 4890,
				"name" : "Mount Speke"
			}
		},
		{
			"type" : "Feature",
			"geometry" : {
				"type" : "Point",
				"coordinates" : [ -71.0011, 8.54583 ]
			},
			"properties" : {
				"meters" : 4890,
				"name" : "Bonpland"
			}
		},
		{
			"type" : "Feature",
			"geometry" : {
				"type" : "Point",
				"coordinates" : [ 137.183, -4.08333 ]
			},
			"properties" : {
				"meters" : 4884,
				"name" : "Puncak Jaya"
			}
		},
		{
			"type" : "Feature",
			"geometry" : {
				"type" : "Point",
				"coordinates" : [ 43.1167, 42.95 ]
			},
			"properties" : {
				"meters" : 4860,
				"name" : "Gistola"
			}
		},
		{
			"type" : "Feature",
			"geometry" : {
				"type" : "Point",
				"coordinates" : [ 42.15, 44.1 ]
			},
			"properties" : {
				"meters" : 4853,
				"name" : "Tetnuldi"
			}
		},
		{
			"type" : "Feature",
			"geometry" : {
				"type" : "Point",
				"coordinates" : [ 50.5757, 36.2239 ]
			},
			"properties" : {
				"meters" : 4850,
				"name" : "Alam Kuh"
			}
		},
		{
			"type" : "Feature",
			"geometry" : {
				"type" : "Point",
				"coordinates" : [ 29.8833, 0.366667 ]
			},
			"properties" : {
				"meters" : 4843,
				"name" : "Mount Baker"
			}
		},
		{
			"type" : "Feature",
			"geometry" : {
				"type" : "Point",
				"coordinates" : [ -140.5119, 61.2327 ]
			},
			"properties" : {
				"meters" : 4842,
				"name" : "Mount Wood"
			}
		},
		{
			"type" : "Feature",
			"geometry" : {
				"type" : "Point",
				"coordinates" : [ -68.266598, -16.225358 ]
			},
			"properties" : {
				"meters" : 4816,
				"name" : "Condor Pusthaña"
			}
		},
		{
			"type" : "Feature",
			"geometry" : {
				"type" : "Point",
				"coordinates" : [ -139.683333, 60.333333 ]
			},
			"properties" : {
				"meters" : 4809,
				"name" : "Mount Vancouver"
			}
		},
		{
			"type" : "Feature",
			"geometry" : {
				"type" : "Point",
				"coordinates" : [ 6.864824, 45.832866 ]
			},
			"properties" : {
				"meters" : 4807,
				"name" : "Mont Blanc"
			}
		},
		{
			"type" : "Feature",
			"geometry" : {
				"type" : "Point",
				"coordinates" : [ 74.1667, 35.7167 ]
			},
			"properties" : {
				"meters" : 4800,
				"name" : "Haramosh Kutwal Galli"
			}
		},
		{
			"type" : "Feature",
			"geometry" : {
				"type" : "Point",
				"coordinates" : [ 29.9, 0.433333 ]
			},
			"properties" : {
				"meters" : 4798,
				"name" : "Mount Emin"
			}
		},
		{
			"type" : "Feature",
			"geometry" : {
				"type" : "Point",
				"coordinates" : [ -78.659706, -0.531199 ]
			},
			"properties" : {
				"meters" : 4790,
				"name" : "Corazón"
			}
		},
		{
			"type" : "Feature",
			"geometry" : {
				"type" : "Point",
				"coordinates" : [ -78.598766, -0.177068 ]
			},
			"properties" : {
				"meters" : 4784,
				"name" : "Guagua Pichincha"
			}
		},
		{
			"type" : "Feature",
			"geometry" : {
				"type" : "Point",
				"coordinates" : [ -68.101684, -26.936944 ]
			},
			"properties" : {
				"meters" : 4774,
				"name" : "Cerro Morocho"
			}
		},
		{
			"type" : "Feature",
			"geometry" : {
				"type" : "Point",
				"coordinates" : [ 160.633, 56.0667 ]
			},
			"properties" : {
				"meters" : 4750,
				"name" : "Kliuchevskoi"
			}
		},
		{
			"type" : "Feature",
			"geometry" : {
				"type" : "Point",
				"coordinates" : [ -70.951638, 8.858698 ]
			},
			"properties" : {
				"meters" : 4748,
				"name" : "Piedras Blancas"
			}
		},
		{
			"type" : "Feature",
			"geometry" : {
				"type" : "Point",
				"coordinates" : [ 74.48861, 33.89333 ]
			},
			"properties" : {
				"meters" : 4741,
				"name" : "Tattakuti"
			}
		},
		{
			"type" : "Feature",
			"geometry" : {
				"type" : "Point",
				"coordinates" : [ 138.750501, -4.247641 ]
			},
			"properties" : {
				"meters" : 4730,
				"name" : "Puncak Trikora"
			}
		},
		{
			"type" : "Feature",
			"geometry" : {
				"type" : "Point",
				"coordinates" : [ -71.0889, 8.53167 ]
			},
			"properties" : {
				"meters" : 4729,
				"name" : "El Toro"
			}
		},
		{
			"type" : "Feature",
			"geometry" : {
				"type" : "Point",
				"coordinates" : [ -69.405006, -32.913619 ]
			},
			"properties" : {
				"meters" : 4717,
				"name" : "El Salto"
			}
		},
		{
			"type" : "Feature",
			"geometry" : {
				"type" : "Point",
				"coordinates" : [ 29.9167, 0.433333 ]
			},
			"properties" : {
				"meters" : 4715,
				"name" : "Mount Gessi"
			}
		},
		{
			"type" : "Feature",
			"geometry" : {
				"type" : "Point",
				"coordinates" : [ 42.6667, 43.1333 ]
			},
			"properties" : {
				"meters" : 4710,
				"name" : "Ushba"
			}
		},
		{
			"type" : "Feature",
			"geometry" : {
				"type" : "Point",
				"coordinates" : [ -70.7, -36.9667 ]
			},
			"properties" : {
				"meters" : 4709,
				"name" : "Domuyo"
			}
		},
		{
			"type" : "Feature",
			"geometry" : {
				"type" : "Point",
				"coordinates" : [ -78.598981, -0.171661 ]
			},
			"properties" : {
				"meters" : 4698,
				"name" : "Rucu Pichincha"
			}
		},
		{
			"type" : "Feature",
			"geometry" : {
				"type" : "Point",
				"coordinates" : [ -70.802489, 8.756357 ]
			},
			"properties" : {
				"meters" : 4670,
				"name" : "Mucuñuque"
			}
		},
		{
			"type" : "Feature",
			"geometry" : {
				"type" : "Point",
				"coordinates" : [ -137.527, 58.9072 ]
			},
			"properties" : {
				"meters" : 4663,
				"name" : "Mount Fairweather"
			}
		},
		{
			"type" : "Feature",
			"geometry" : {
				"type" : "Point",
				"coordinates" : [ -98.64006, 19.198594 ]
			},
			"properties" : {
				"meters" : 4660,
				"name" : "Téyotl"
			}
		},
		{
			"type" : "Feature",
			"geometry" : {
				"type" : "Point",
				"coordinates" : [ 76.390024, 32.287392 ]
			},
			"properties" : {
				"meters" : 4650,
				"name" : "Mun Peak"
			}
		},
		{
			"type" : "Feature",
			"geometry" : {
				"type" : "Point",
				"coordinates" : [ -70.915, 8.84778 ]
			},
			"properties" : {
				"meters" : 4650,
				"name" : "El Buitre"
			}
		},
		{
			"type" : "Feature",
			"geometry" : {
				"type" : "Point",
				"coordinates" : [ 68.172655, 38.947394 ]
			},
			"properties" : {
				"meters" : 4643,
				"name" : "Khazret Sultan"
			}
		},
		{
			"type" : "Feature",
			"geometry" : {
				"type" : "Point",
				"coordinates" : [ -71.001034, 8.810355 ]
			},
			"properties" : {
				"meters" : 4643,
				"name" : "Pan de Azúcar"
			}
		},
		{
			"type" : "Feature",
			"geometry" : {
				"type" : "Point",
				"coordinates" : [ 7.88333, 45.9167 ]
			},
			"properties" : {
				"meters" : 4634,
				"name" : "Dufourspitze"
			}
		},
		{
			"type" : "Feature",
			"geometry" : {
				"type" : "Point",
				"coordinates" : [ 7.88333, 45.9167 ]
			},
			"properties" : {
				"meters" : 4633,
				"name" : "Monte Rosa"
			}
		},
		{
			"type" : "Feature",
			"geometry" : {
				"type" : "Point",
				"coordinates" : [ 7.867399, 45.936854 ]
			},
			"properties" : {
				"meters" : 4632,
				"name" : "Ostspitze"
			}
		},
		{
			"type" : "Feature",
			"geometry" : {
				"type" : "Point",
				"coordinates" : [ 29.8833, 0.333333 ]
			},
			"properties" : {
				"meters" : 4626,
				"name" : "Mount Luigi"
			}
		},
		{
			"type" : "Feature",
			"geometry" : {
				"type" : "Point",
				"coordinates" : [ 85.593667, 28.214945 ]
			},
			"properties" : {
				"meters" : 4620,
				"name" : "Kyimoshung Ri"
			}
		},
		{
			"type" : "Feature",
			"geometry" : {
				"type" : "Point",
				"coordinates" : [ 7.868, 45.93675 ]
			},
			"properties" : {
				"meters" : 4618,
				"name" : "Grenzgipfel"
			}
		},
		{
			"type" : "Feature",
			"geometry" : {
				"type" : "Point",
				"coordinates" : [ -70.806198, 8.759418 ]
			},
			"properties" : {
				"meters" : 4609,
				"name" : "Pico Mifés"
			}
		},
		{
			"type" : "Feature",
			"geometry" : {
				"type" : "Point",
				"coordinates" : [ 7.9, 45.9167 ]
			},
			"properties" : {
				"meters" : 4609,
				"name" : "Nordend"
			}
		},
		{
			"type" : "Feature",
			"geometry" : {
				"type" : "Point",
				"coordinates" : [ -78.180465, 0.261636 ]
			},
			"properties" : {
				"meters" : 4580,
				"name" : "Imbabura Norte"
			}
		},
		{
			"type" : "Feature",
			"geometry" : {
				"type" : "Point",
				"coordinates" : [ 36.749999, -3.244392 ]
			},
			"properties" : {
				"meters" : 4566,
				"name" : "Mount Meru"
			}
		},
		{
			"type" : "Feature",
			"geometry" : {
				"type" : "Point",
				"coordinates" : [ -66.272665, -17.239812 ]
			},
			"properties" : {
				"meters" : 4564,
				"name" : "Cerro Santiago"
			}
		},
		{
			"type" : "Feature",
			"geometry" : {
				"type" : "Point",
				"coordinates" : [ 7.877026, 45.927125 ]
			},
			"properties" : {
				"meters" : 4556,
				"name" : "Signalkuppe"
			}
		},
		{
			"type" : "Feature",
			"geometry" : {
				"type" : "Point",
				"coordinates" : [ 38.4, 13.25 ]
			},
			"properties" : {
				"meters" : 4550,
				"name" : "Ras Dashen"
			}
		},
		{
			"type" : "Feature",
			"geometry" : {
				"type" : "Point",
				"coordinates" : [ 43.2333, 42.8667 ]
			},
			"properties" : {
				"meters" : 4547,
				"name" : "Ailama"
			}
		},
		{
			"type" : "Feature",
			"geometry" : {
				"type" : "Point",
				"coordinates" : [ 7.85, 46.1 ]
			},
			"properties" : {
				"meters" : 4545,
				"name" : "Dom"
			}
		},
		{
			"type" : "Feature",
			"geometry" : {
				"type" : "Point",
				"coordinates" : [ -78.329817, 0.482866 ]
			},
			"properties" : {
				"meters" : 4535,
				"name" : "Yanaurco de Piñan"
			}
		},
		{
			"type" : "Feature",
			"geometry" : {
				"type" : "Point",
				"coordinates" : [ 166.417, -84.3333 ]
			},
			"properties" : {
				"meters" : 4528,
				"name" : "Mount Kirkpatrick"
			}
		},
		{
			"type" : "Feature",
			"geometry" : {
				"type" : "Point",
				"coordinates" : [ -141.167, 61.2667 ]
			},
			"properties" : {
				"meters" : 4521,
				"name" : "Mount Bear"
			}
		},
		{
			"type" : "Feature",
			"geometry" : {
				"type" : "Point",
				"coordinates" : [ 145.029316, -5.779966 ]
			},
			"properties" : {
				"meters" : 4509,
				"name" : "Mount Wilhelm"
			}
		},
		{
			"type" : "Feature",
			"geometry" : {
				"type" : "Point",
				"coordinates" : [ 29.45, -1.5 ]
			},
			"properties" : {
				"meters" : 4507,
				"name" : "Mount Karisimbi"
			}
		},
		{
			"type" : "Feature",
			"geometry" : {
				"type" : "Point",
				"coordinates" : [ 86.5908, 49.8067 ]
			},
			"properties" : {
				"meters" : 4506,
				"name" : "Gora Belukha"
			}
		},
		{
			"type" : "Feature",
			"geometry" : {
				"type" : "Point",
				"coordinates" : [ 7.71667, 46.1167 ]
			},
			"properties" : {
				"meters" : 4504,
				"name" : "Weisshorn"
			}
		},
		{
			"type" : "Feature",
			"geometry" : {
				"type" : "Point",
				"coordinates" : [ 45.3167, 42.6833 ]
			},
			"properties" : {
				"meters" : 4495,
				"name" : "Tebulo"
			}
		},
		{
			"type" : "Feature",
			"geometry" : {
				"type" : "Point",
				"coordinates" : [ 7.658333, 45.976389 ]
			},
			"properties" : {
				"meters" : 4478,
				"name" : "Matterhorn"
			}
		},
		{
			"type" : "Feature",
			"geometry" : {
				"type" : "Point",
				"coordinates" : [ -71.001079, 8.602607 ]
			},
			"properties" : {
				"meters" : 4474,
				"name" : "Cardenillo"
			}
		},
		{
			"type" : "Feature",
			"geometry" : {
				"type" : "Point",
				"coordinates" : [ 47.857778, 41.220556 ]
			},
			"properties" : {
				"meters" : 4466,
				"name" : "Bazarduzu"
			}
		},
		{
			"type" : "Feature",
			"geometry" : {
				"type" : "Point",
				"coordinates" : [ 44.4167, 42.6833 ]
			},
			"properties" : {
				"meters" : 4466,
				"name" : "Suatisi"
			}
		},
		{
			"type" : "Feature",
			"geometry" : {
				"type" : "Point",
				"coordinates" : [ 6.88333, 45.85 ]
			},
			"properties" : {
				"meters" : 4465,
				"name" : "Mont Maudit"
			}
		},
		{
			"type" : "Feature",
			"geometry" : {
				"type" : "Point",
				"coordinates" : [ 43.3333, 42.8833 ]
			},
			"properties" : {
				"meters" : 4462,
				"name" : "Chanchakhi"
			}
		},
		{
			"type" : "Feature",
			"geometry" : {
				"type" : "Point",
				"coordinates" : [ -66.853085, 10.541188 ]
			},
			"properties" : {
				"meters" : 4460,
				"name" : "Pico Occidental"
			}
		},
		{
			"type" : "Feature",
			"geometry" : {
				"type" : "Point",
				"coordinates" : [ 43.4, 42.8833 ]
			},
			"properties" : {
				"meters" : 4454,
				"name" : "Babis Mta"
			}
		},
		{
			"type" : "Feature",
			"geometry" : {
				"type" : "Point",
				"coordinates" : [ 44.75, 42.6667 ]
			},
			"properties" : {
				"meters" : 4451,
				"name" : "Shan"
			}
		},
		{
			"type" : "Feature",
			"geometry" : {
				"type" : "Point",
				"coordinates" : [ -103.633, 19.55 ]
			},
			"properties" : {
				"meters" : 4450,
				"name" : "Nevado de Colima"
			}
		},
		{
			"type" : "Feature",
			"geometry" : {
				"type" : "Point",
				"coordinates" : [ -151.089, 62.9508 ]
			},
			"properties" : {
				"meters" : 4442,
				"name" : "Mount Hunter"
			}
		},
		{
			"type" : "Feature",
			"geometry" : {
				"type" : "Point",
				"coordinates" : [ -118.292327, 36.578523 ]
			},
			"properties" : {
				"meters" : 4418,
				"name" : "Mount Whitney"
			}
		},
		{
			"type" : "Feature",
			"geometry" : {
				"type" : "Point",
				"coordinates" : [ 42.8333, 43.2167 ]
			},
			"properties" : {
				"meters" : 4412,
				"name" : "Chatini"
			}
		},
		{
			"type" : "Feature",
			"geometry" : {
				"type" : "Point",
				"coordinates" : [ -106.445, 39.1178 ]
			},
			"properties" : {
				"meters" : 4399,
				"name" : "Mount Elbert"
			}
		},
		{
			"type" : "Feature",
			"geometry" : {
				"type" : "Point",
				"coordinates" : [ -106.475, 39.1872 ]
			},
			"properties" : {
				"meters" : 4398,
				"name" : "Mount Massive"
			}
		},
		{
			"type" : "Feature",
			"geometry" : {
				"type" : "Point",
				"coordinates" : [ -121.759, 46.8528 ]
			},
			"properties" : {
				"meters" : 4392,
				"name" : "Mount Rainier"
			}
		},
		{
			"type" : "Feature",
			"geometry" : {
				"type" : "Point",
				"coordinates" : [ -106.32, 38.9244 ]
			},
			"properties" : {
				"meters" : 4390,
				"name" : "Mount Harvard"
			}
		},
		{
			"type" : "Feature",
			"geometry" : {
				"type" : "Point",
				"coordinates" : [ -118.31, 36.6561 ]
			},
			"properties" : {
				"meters" : 4380,
				"name" : "Mount Williamson"
			}
		},
		{
			"type" : "Feature",
			"geometry" : {
				"type" : "Point",
				"coordinates" : [ 51.588192, 36.108201 ]
			},
			"properties" : {
				"meters" : 4375,
				"name" : "Khole-no"
			}
		},
		{
			"type" : "Feature",
			"geometry" : {
				"type" : "Point",
				"coordinates" : [ 87.825, 49.149167 ]
			},
			"properties" : {
				"meters" : 4374,
				"name" : "Khuiten Uul"
			}
		},
		{
			"type" : "Feature",
			"geometry" : {
				"type" : "Point",
				"coordinates" : [ 106.35, 49.6167 ]
			},
			"properties" : {
				"meters" : 4374,
				"name" : "Mt Khuiten"
			}
		},
		{
			"type" : "Feature",
			"geometry" : {
				"type" : "Point",
				"coordinates" : [ -105.485, 37.5772 ]
			},
			"properties" : {
				"meters" : 4372,
				"name" : "Blanca Peak"
			}
		},
		{
			"type" : "Feature",
			"geometry" : {
				"type" : "Point",
				"coordinates" : [ -106.473, 39.0294 ]
			},
			"properties" : {
				"meters" : 4370,
				"name" : "La Plata Peak"
			}
		},
		{
			"type" : "Feature",
			"geometry" : {
				"type" : "Point",
				"coordinates" : [ 43.25, 43.0333 ]
			},
			"properties" : {
				"meters" : 4368,
				"name" : "Shkhelda"
			}
		},
		{
			"type" : "Feature",
			"geometry" : {
				"type" : "Point",
				"coordinates" : [ 143.883, -6.03333 ]
			},
			"properties" : {
				"meters" : 4367,
				"name" : "Mount Giluwe"
			}
		},
		{
			"type" : "Feature",
			"geometry" : {
				"type" : "Point",
				"coordinates" : [ -107.461, 38.0717 ]
			},
			"properties" : {
				"meters" : 4361,
				"name" : "Uncompahgre Peak"
			}
		},
		{
			"type" : "Feature",
			"geometry" : {
				"type" : "Point",
				"coordinates" : [ -105.585, 37.9667 ]
			},
			"properties" : {
				"meters" : 4357,
				"name" : "Crestone Peak"
			}
		},
		{
			"type" : "Feature",
			"geometry" : {
				"type" : "Point",
				"coordinates" : [ 7.61667, 46.0333 ]
			},
			"properties" : {
				"meters" : 4356,
				"name" : "Dent Blanche"
			}
		},
		{
			"type" : "Feature",
			"geometry" : {
				"type" : "Point",
				"coordinates" : [ -106.111, 39.3514 ]
			},
			"properties" : {
				"meters" : 4354,
				"name" : "Mount Lincoln"
			}
		},
		{
			"type" : "Feature",
			"geometry" : {
				"type" : "Point",
				"coordinates" : [ -70.0237, -35.0905 ]
			},
			"properties" : {
				"meters" : 4351,
				"name" : "Cerro Leñas"
			}
		},
		{
			"type" : "Feature",
			"geometry" : {
				"type" : "Point",
				"coordinates" : [ -105.643, 39.5886 ]
			},
			"properties" : {
				"meters" : 4350,
				"name" : "Mount Evans"
			}
		},
		{
			"type" : "Feature",
			"geometry" : {
				"type" : "Point",
				"coordinates" : [ 85.610447, 28.202465 ]
			},
			"properties" : {
				"meters" : 4350,
				"name" : "Kyangjin"
			}
		},
		{
			"type" : "Feature",
			"geometry" : {
				"type" : "Point",
				"coordinates" : [ -105.817, 39.6339 ]
			},
			"properties" : {
				"meters" : 4350,
				"name" : "Grays Peak"
			}
		},
		{
			"type" : "Feature",
			"geometry" : {
				"type" : "Point",
				"coordinates" : [ -106.239, 38.656 ]
			},
			"properties" : {
				"meters" : 4349,
				"name" : "Mount Antero"
			}
		},
		{
			"type" : "Feature",
			"geometry" : {
				"type" : "Point",
				"coordinates" : [ -105.821, 39.6428 ]
			},
			"properties" : {
				"meters" : 4349,
				"name" : "Torreys Peak"
			}
		},
		{
			"type" : "Feature",
			"geometry" : {
				"type" : "Point",
				"coordinates" : [ -106.106, 39.3972 ]
			},
			"properties" : {
				"meters" : 4348,
				"name" : "Quandary Peak"
			}
		},
		{
			"type" : "Feature",
			"geometry" : {
				"type" : "Point",
				"coordinates" : [ -106.861, 39.0097 ]
			},
			"properties" : {
				"meters" : 4348,
				"name" : "Castle Peak"
			}
		},
		{
			"type" : "Feature",
			"geometry" : {
				"type" : "Point",
				"coordinates" : [ -118.367, 36.6167 ]
			},
			"properties" : {
				"meters" : 4347,
				"name" : "Keeler Needle"
			}
		},
		{
			"type" : "Feature",
			"geometry" : {
				"type" : "Point",
				"coordinates" : [ -105.615, 40.2547 ]
			},
			"properties" : {
				"meters" : 4346,
				"name" : "Longs Peak"
			}
		},
		{
			"type" : "Feature",
			"geometry" : {
				"type" : "Point",
				"coordinates" : [ -106.437, 38.9149 ]
			},
			"properties" : {
				"meters" : 4346,
				"name" : "Ice Mountain"
			}
		},
		{
			"type" : "Feature",
			"geometry" : {
				"type" : "Point",
				"coordinates" : [ -107.991, 37.8392 ]
			},
			"properties" : {
				"meters" : 4342,
				"name" : "Mount Wilson"
			}
		},
		{
			"type" : "Feature",
			"geometry" : {
				"type" : "Point",
				"coordinates" : [ -118.255, 37.6344 ]
			},
			"properties" : {
				"meters" : 4342,
				"name" : "White Mountain Peak"
			}
		},
		{
			"type" : "Feature",
			"geometry" : {
				"type" : "Point",
				"coordinates" : [ -118.522, 37.0939 ]
			},
			"properties" : {
				"meters" : 4341,
				"name" : "North Palisade"
			}
		},
		{
			"type" : "Feature",
			"geometry" : {
				"type" : "Point",
				"coordinates" : [ -106.118, 39.3469 ]
			},
			"properties" : {
				"meters" : 4340,
				"name" : "Mount Cameron"
			}
		},
		{
			"type" : "Feature",
			"geometry" : {
				"type" : "Point",
				"coordinates" : [ -106.239, 38.6189 ]
			},
			"properties" : {
				"meters" : 4337,
				"name" : "Mount Shavano"
			}
		},
		{
			"type" : "Feature",
			"geometry" : {
				"type" : "Point",
				"coordinates" : [ -118.5142, 37.094167 ]
			},
			"properties" : {
				"meters" : 4328,
				"name" : "Starlight Peak"
			}
		},
		{
			"type" : "Feature",
			"geometry" : {
				"type" : "Point",
				"coordinates" : [ -118.517, 37.0833 ]
			},
			"properties" : {
				"meters" : 4328,
				"name" : "Polemonium Peak"
			}
		},
		{
			"type" : "Feature",
			"geometry" : {
				"type" : "Point",
				"coordinates" : [ -106.313, 38.8442 ]
			},
			"properties" : {
				"meters" : 4327,
				"name" : "Mount Yale"
			}
		},
		{
			"type" : "Feature",
			"geometry" : {
				"type" : "Point",
				"coordinates" : [ -106.242, 38.7494 ]
			},
			"properties" : {
				"meters" : 4327,
				"name" : "Mount Princeton"
			}
		},
		{
			"type" : "Feature",
			"geometry" : {
				"type" : "Point",
				"coordinates" : [ -105.576, 37.9647 ]
			},
			"properties" : {
				"meters" : 4327,
				"name" : "Crestone Needle"
			}
		},
		{
			"type" : "Feature",
			"geometry" : {
				"type" : "Point",
				"coordinates" : [ -106.361, 38.9606 ]
			},
			"properties" : {
				"meters" : 4327,
				"name" : "Mount Belford"
			}
		},
		{
			"type" : "Feature",
			"geometry" : {
				"type" : "Point",
				"coordinates" : [ 7.866667, 45.916109 ]
			},
			"properties" : {
				"meters" : 4322,
				"name" : "Schwarzhorn"
			}
		},
		{
			"type" : "Feature",
			"geometry" : {
				"type" : "Point",
				"coordinates" : [ 34.55, 1.13333 ]
			},
			"properties" : {
				"meters" : 4321,
				"name" : "Mount Elgon"
			}
		},
		{
			"type" : "Feature",
			"geometry" : {
				"type" : "Point",
				"coordinates" : [ -70.903316, 8.607319 ]
			},
			"properties" : {
				"meters" : 4320,
				"name" : "Pico Santo Cristo"
			}
		},
		{
			"type" : "Feature",
			"geometry" : {
				"type" : "Point",
				"coordinates" : [ -106.107, 39.3353 ]
			},
			"properties" : {
				"meters" : 4320,
				"name" : "Mount Bross"
			}
		},
		{
			"type" : "Feature",
			"geometry" : {
				"type" : "Point",
				"coordinates" : [ -105.602, 37.9797 ]
			},
			"properties" : {
				"meters" : 4318,
				"name" : "Kit Carson Mountain"
			}
		},
		{
			"type" : "Feature",
			"geometry" : {
				"type" : "Point",
				"coordinates" : [ -122.195048, 41.409357 ]
			},
			"properties" : {
				"meters" : 4317,
				"name" : "Mount Shasta"
			}
		},
		{
			"type" : "Feature",
			"geometry" : {
				"type" : "Point",
				"coordinates" : [ -144.016, 62.0069 ]
			},
			"properties" : {
				"meters" : 4317,
				"name" : "Mount Wrangell"
			}
		},
		{
			"type" : "Feature",
			"geometry" : {
				"type" : "Point",
				"coordinates" : [ -108.005, 37.8394 ]
			},
			"properties" : {
				"meters" : 4316,
				"name" : "El Diente"
			}
		},
		{
			"type" : "Feature",
			"geometry" : {
				"type" : "Point",
				"coordinates" : [ -106.989, 39.0708 ]
			},
			"properties" : {
				"meters" : 4315,
				"name" : "Maroon Bells"
			}
		},
		{
			"type" : "Feature",
			"geometry" : {
				"type" : "Point",
				"coordinates" : [ 7.3, 45.95 ]
			},
			"properties" : {
				"meters" : 4314,
				"name" : "Grand Combin"
			}
		},
		{
			"type" : "Feature",
			"geometry" : {
				"type" : "Point",
				"coordinates" : [ -106.338, 38.9647 ]
			},
			"properties" : {
				"meters" : 4314,
				"name" : "Mount Oxford"
			}
		},
		{
			"type" : "Feature",
			"geometry" : {
				"type" : "Point",
				"coordinates" : [ -106.25, 38.6253 ]
			},
			"properties" : {
				"meters" : 4314,
				"name" : "Tabeguache Peak"
			}
		},
		{
			"type" : "Feature",
			"geometry" : {
				"type" : "Point",
				"coordinates" : [ -118.502, 37.0944 ]
			},
			"properties" : {
				"meters" : 4314,
				"name" : "Mount Sill"
			}
		},
		{
			"type" : "Feature",
			"geometry" : {
				"type" : "Point",
				"coordinates" : [ -107.792, 38.0033 ]
			},
			"properties" : {
				"meters" : 4313,
				"name" : "Mount Sneffels"
			}
		},
		{
			"type" : "Feature",
			"geometry" : {
				"type" : "Point",
				"coordinates" : [ -106.139, 39.3397 ]
			},
			"properties" : {
				"meters" : 4312,
				"name" : "Mount Democrat"
			}
		},
		{
			"type" : "Feature",
			"geometry" : {
				"type" : "Point",
				"coordinates" : [ -107.082, 39.1503 ]
			},
			"properties" : {
				"meters" : 4307,
				"name" : "Capitol Peak"
			}
		},
		{
			"type" : "Feature",
			"geometry" : {
				"type" : "Point",
				"coordinates" : [ 6.853237, 45.837889 ]
			},
			"properties" : {
				"meters" : 4304,
				"name" : "Dôme du Goûter"
			}
		},
		{
			"type" : "Feature",
			"geometry" : {
				"type" : "Point",
				"coordinates" : [ -105.044, 38.8406 ]
			},
			"properties" : {
				"meters" : 4300,
				"name" : "Pikes Peak"
			}
		},
		{
			"type" : "Feature",
			"geometry" : {
				"type" : "Point",
				"coordinates" : [ -118.288, 36.5908 ]
			},
			"properties" : {
				"meters" : 4293,
				"name" : "Mount Russell"
			}
		},
		{
			"type" : "Feature",
			"geometry" : {
				"type" : "Point",
				"coordinates" : [ -107.621, 37.6228 ]
			},
			"properties" : {
				"meters" : 4293,
				"name" : "Mount Eolus"
			}
		},
		{
			"type" : "Feature",
			"geometry" : {
				"type" : "Point",
				"coordinates" : [ -105.606, 37.9803 ]
			},
			"properties" : {
				"meters" : 4292,
				"name" : "Challenger Point"
			}
		},
		{
			"type" : "Feature",
			"geometry" : {
				"type" : "Point",
				"coordinates" : [ -107.591, 37.6214 ]
			},
			"properties" : {
				"meters" : 4292,
				"name" : "Windom Peak"
			}
		},
		{
			"type" : "Feature",
			"geometry" : {
				"type" : "Point",
				"coordinates" : [ -107.066, 39.1189 ]
			},
			"properties" : {
				"meters" : 4290,
				"name" : "Snowmass Mountain"
			}
		},
		{
			"type" : "Feature",
			"geometry" : {
				"type" : "Point",
				"coordinates" : [ -106.297, 38.9039 ]
			},
			"properties" : {
				"meters" : 4290,
				"name" : "Mount Columbia"
			}
		},
		{
			"type" : "Feature",
			"geometry" : {
				"type" : "Point",
				"coordinates" : [ -140.455849, 60.302985 ]
			},
			"properties" : {
				"meters" : 4289,
				"name" : "Mt. Augusta"
			}
		},
		{
			"type" : "Feature",
			"geometry" : {
				"type" : "Point",
				"coordinates" : [ -106.378, 38.9472 ]
			},
			"properties" : {
				"meters" : 4288,
				"name" : "Missouri Mountain"
			}
		},
		{
			"type" : "Feature",
			"geometry" : {
				"type" : "Point",
				"coordinates" : [ -105.555, 37.9761 ]
			},
			"properties" : {
				"meters" : 4287,
				"name" : "Humboldt Peak"
			}
		},
		{
			"type" : "Feature",
			"geometry" : {
				"type" : "Point",
				"coordinates" : [ -105.668, 39.5828 ]
			},
			"properties" : {
				"meters" : 4286,
				"name" : "Mount Bierstadt"
			}
		},
		{
			"type" : "Feature",
			"geometry" : {
				"type" : "Point",
				"coordinates" : [ -107.595, 37.6272 ]
			},
			"properties" : {
				"meters" : 4285,
				"name" : "Sunlight Peak"
			}
		},
		{
			"type" : "Feature",
			"geometry" : {
				"type" : "Point",
				"coordinates" : [ -106.863799, 39.014266 ]
			},
			"properties" : {
				"meters" : 4285,
				"name" : "Conundrum Peak"
			}
		},
		{
			"type" : "Feature",
			"geometry" : {
				"type" : "Point",
				"coordinates" : [ -118.417, 37.0167 ]
			},
			"properties" : {
				"meters" : 4285,
				"name" : "Split Mountain"
			}
		},
		{
			"type" : "Feature",
			"geometry" : {
				"type" : "Point",
				"coordinates" : [ -107.504, 37.9131 ]
			},
			"properties" : {
				"meters" : 4282,
				"name" : "Handies Peak"
			}
		},
		{
			"type" : "Feature",
			"geometry" : {
				"type" : "Point",
				"coordinates" : [ -105.185, 37.1222 ]
			},
			"properties" : {
				"meters" : 4282,
				"name" : "Culebra Peak"
			}
		},
		{
			"type" : "Feature",
			"geometry" : {
				"type" : "Point",
				"coordinates" : [ -105.492, 37.5825 ]
			},
			"properties" : {
				"meters" : 4280,
				"name" : "Ellingwood Point"
			}
		},
		{
			"type" : "Feature",
			"geometry" : {
				"type" : "Point",
				"coordinates" : [ -105.44, 37.5847 ]
			},
			"properties" : {
				"meters" : 4280,
				"name" : "Mount Lindsey"
			}
		},
		{
			"type" : "Feature",
			"geometry" : {
				"type" : "Point",
				"coordinates" : [ -118.467, 37.0667 ]
			},
			"properties" : {
				"meters" : 4279,
				"name" : "Middle Palisade"
			}
		},
		{
			"type" : "Feature",
			"geometry" : {
				"type" : "Point",
				"coordinates" : [ -105.497, 37.5667 ]
			},
			"properties" : {
				"meters" : 4279,
				"name" : "Little Bear Peak"
			}
		},
		{
			"type" : "Feature",
			"geometry" : {
				"type" : "Point",
				"coordinates" : [ -106.169, 39.225 ]
			},
			"properties" : {
				"meters" : 4278,
				"name" : "Mount Sherman"
			}
		},
		{
			"type" : "Feature",
			"geometry" : {
				"type" : "Point",
				"coordinates" : [ -107.421, 37.9408 ]
			},
			"properties" : {
				"meters" : 4278,
				"name" : "Redcloud Peak"
			}
		},
		{
			"type" : "Feature",
			"geometry" : {
				"type" : "Point",
				"coordinates" : [ -118.3, 36.5167 ]
			},
			"properties" : {
				"meters" : 4275,
				"name" : "Mount Langley"
			}
		},
		{
			"type" : "Feature",
			"geometry" : {
				"type" : "Point",
				"coordinates" : [ -106.9871, 39.076 ]
			},
			"properties" : {
				"meters" : 4273,
				"name" : "North Maroon Peak"
			}
		},
		{
			"type" : "Feature",
			"geometry" : {
				"type" : "Point",
				"coordinates" : [ -106.95, 39.0714 ]
			},
			"properties" : {
				"meters" : 4273,
				"name" : "Pyramid Peak"
			}
		},
		{
			"type" : "Feature",
			"geometry" : {
				"type" : "Point",
				"coordinates" : [ 8.13333, 46.5333 ]
			},
			"properties" : {
				"meters" : 4273,
				"name" : "Finsteraarhorn"
			}
		},
		{
			"type" : "Feature",
			"geometry" : {
				"type" : "Point",
				"coordinates" : [ -118.333, 36.65 ]
			},
			"properties" : {
				"meters" : 4273,
				"name" : "Mount Tyndall"
			}
		},
		{
			"type" : "Feature",
			"geometry" : {
				"type" : "Point",
				"coordinates" : [ -107.51, 38.0606 ]
			},
			"properties" : {
				"meters" : 4272,
				"name" : "Wetterhorn Peak"
			}
		},
		{
			"type" : "Feature",
			"geometry" : {
				"type" : "Point",
				"coordinates" : [ -107.984, 37.8603 ]
			},
			"properties" : {
				"meters" : 4272,
				"name" : "Wilson Peak"
			}
		},
		{
			"type" : "Feature",
			"geometry" : {
				"type" : "Point",
				"coordinates" : [ -106.931, 37.9869 ]
			},
			"properties" : {
				"meters" : 4272,
				"name" : "San Luis Peak"
			}
		},
		{
			"type" : "Feature",
			"geometry" : {
				"type" : "Point",
				"coordinates" : [ -118.291253, 36.564743 ]
			},
			"properties" : {
				"meters" : 4271,
				"name" : "Mount Muir"
			}
		},
		{
			"type" : "Feature",
			"geometry" : {
				"type" : "Point",
				"coordinates" : [ -106.479, 39.4681 ]
			},
			"properties" : {
				"meters" : 4269,
				"name" : "Mount of the Holy Cross"
			}
		},
		{
			"type" : "Feature",
			"geometry" : {
				"type" : "Point",
				"coordinates" : [ -106.438, 38.9453 ]
			},
			"properties" : {
				"meters" : 4268,
				"name" : "Huron Peak"
			}
		},
		{
			"type" : "Feature",
			"geometry" : {
				"type" : "Point",
				"coordinates" : [ -107.425, 37.9228 ]
			},
			"properties" : {
				"meters" : 4268,
				"name" : "Sunshine Peak"
			}
		},
		{
			"type" : "Feature",
			"geometry" : {
				"type" : "Point",
				"coordinates" : [ -118.517, 37.0981 ]
			},
			"properties" : {
				"meters" : 4267,
				"name" : "Thunderbolt Peak"
			}
		},
		{
			"type" : "Feature",
			"geometry" : {
				"type" : "Point",
				"coordinates" : [ -106.597, 39.0425 ]
			},
			"properties" : {
				"meters" : 4264,
				"name" : "Grizzly Peak"
			}
		},
		{
			"type" : "Feature",
			"geometry" : {
				"type" : "Point",
				"coordinates" : [ -78.293853, 0.13351 ]
			},
			"properties" : {
				"meters" : 4263,
				"name" : "Fuya Fuya"
			}
		},
		{
			"type" : "Feature",
			"geometry" : {
				"type" : "Point",
				"coordinates" : [ -118.673, 37.2706 ]
			},
			"properties" : {
				"meters" : 4263,
				"name" : "Mount Humphreys"
			}
		},
		{
			"type" : "Feature",
			"geometry" : {
				"type" : "Point",
				"coordinates" : [ -106.923, 38.0233 ]
			},
			"properties" : {
				"meters" : 4262,
				"name" : "Stewart Peak"
			}
		},
		{
			"type" : "Feature",
			"geometry" : {
				"type" : "Point",
				"coordinates" : [ -106.225, 38.4225 ]
			},
			"properties" : {
				"meters" : 4258,
				"name" : "Mount Ouray"
			}
		},
		{
			"type" : "Feature",
			"geometry" : {
				"type" : "Point",
				"coordinates" : [ -106.128, 39.4033 ]
			},
			"properties" : {
				"meters" : 4252,
				"name" : "Fletcher Mountain"
			}
		},
		{
			"type" : "Feature",
			"geometry" : {
				"type" : "Point",
				"coordinates" : [ 52.230849, 35.766154 ]
			},
			"properties" : {
				"meters" : 4250,
				"name" : "Dobarar"
			}
		},
		{
			"type" : "Feature",
			"geometry" : {
				"type" : "Point",
				"coordinates" : [ -106.85, 39.0333 ]
			},
			"properties" : {
				"meters" : 4250,
				"name" : "Cathedral Peak"
			}
		},
		{
			"type" : "Feature",
			"geometry" : {
				"type" : "Point",
				"coordinates" : [ -106.482, 39.1286 ]
			},
			"properties" : {
				"meters" : 4249,
				"name" : "Mount French"
			}
		},
		{
			"type" : "Feature",
			"geometry" : {
				"type" : "Point",
				"coordinates" : [ -106.4192, 39.0211 ]
			},
			"properties" : {
				"meters" : 4247,
				"name" : "Mount Hope"
			}
		},
		{
			"type" : "Feature",
			"geometry" : {
				"type" : "Point",
				"coordinates" : [ -118.472, 37.075 ]
			},
			"properties" : {
				"meters" : 4243,
				"name" : "Norman Clyde Peak"
			}
		},
		{
			"type" : "Feature",
			"geometry" : {
				"type" : "Point",
				"coordinates" : [ -118.262, 36.5558 ]
			},
			"properties" : {
				"meters" : 4241,
				"name" : "Mount Irvine"
			}
		},
		{
			"type" : "Feature",
			"geometry" : {
				"type" : "Point",
				"coordinates" : [ -105.604, 40.2486 ]
			},
			"properties" : {
				"meters" : 4240,
				"name" : "Mount Meeker"
			}
		},
		{
			"type" : "Feature",
			"geometry" : {
				"type" : "Point",
				"coordinates" : [ -106.185, 39.1858 ]
			},
			"properties" : {
				"meters" : 4236,
				"name" : "Horseshoe Mountain"
			}
		},
		{
			"type" : "Feature",
			"geometry" : {
				"type" : "Point",
				"coordinates" : [ -118.53, 37.1117 ]
			},
			"properties" : {
				"meters" : 4235,
				"name" : "Mount Agassiz"
			}
		},
		{
			"type" : "Feature",
			"geometry" : {
				"type" : "Point",
				"coordinates" : [ -107.602, 37.6894 ]
			},
			"properties" : {
				"meters" : 4226,
				"name" : "Vestal Peak"
			}
		},
		{
			"type" : "Feature",
			"geometry" : {
				"type" : "Point",
				"coordinates" : [ -105.5, 37.6167 ]
			},
			"properties" : {
				"meters" : 4221,
				"name" : "California Peak"
			}
		},
		{
			"type" : "Feature",
			"geometry" : {
				"type" : "Point",
				"coordinates" : [ 7.7, 46.0667 ]
			},
			"properties" : {
				"meters" : 4221,
				"name" : "Zinalrothorn"
			}
		},
		{
			"type" : "Feature",
			"geometry" : {
				"type" : "Point",
				"coordinates" : [ 7.853868, 46.112531 ]
			},
			"properties" : {
				"meters" : 4219,
				"name" : "Hohberghorn"
			}
		},
		{
			"type" : "Feature",
			"geometry" : {
				"type" : "Point",
				"coordinates" : [ -105.793889, 39.636389 ]
			},
			"properties" : {
				"meters" : 4217,
				"name" : "Mount Edwards"
			}
		},
		{
			"type" : "Feature",
			"geometry" : {
				"type" : "Point",
				"coordinates" : [ -118.671, 37.1669 ]
			},
			"properties" : {
				"meters" : 4216,
				"name" : "Mount Darwin"
			}
		},
		{
			"type" : "Feature",
			"geometry" : {
				"type" : "Point",
				"coordinates" : [ -146.716, 63.62 ]
			},
			"properties" : {
				"meters" : 4216,
				"name" : "Mount Hayes"
			}
		},